2026-04-16 15:26:42.026 [main        ] INFO  d.j.Main - Starting Main v1.0-SNAPSHOT using Java 17.0.17 with PID 5356 (C:\Users\seefahrt\Documents\DataCollector\EcoCrossingDataCollector.jar started by HUNTESOC$ in C:\Users\seefahrt\Documents\DataCollector)
2026-04-16 15:26:42.036 [main        ] INFO  d.j.Main - No active profile set, falling back to 1 default profile: "default"
2026-04-16 15:26:43.110 [main        ] INFO  o.s.b.w.e.t.TomcatWebServer - Tomcat initialized with port 8090 (http)
2026-04-16 15:26:43.118 [main        ] INFO  o.a.c.h.Http11NioProtocol - Initializing ProtocolHandler ["http-nio-8090"]
2026-04-16 15:26:43.122 [main        ] INFO  o.a.c.c.StandardService - Starting service [Tomcat]
2026-04-16 15:26:43.122 [main        ] INFO  o.a.c.c.StandardEngine - Starting Servlet engine: [Apache Tomcat/10.1.53]
2026-04-16 15:26:43.159 [main        ] INFO  o.a.c.c.C.[.[.[/] - Initializing Spring embedded WebApplicationContext
2026-04-16 15:26:43.163 [main        ] INFO  o.s.b.w.s.c.ServletWebServerApplicationContext - Root WebApplicationContext: initialization completed in 1029 ms
2026-04-16 15:26:43.258 [main        ] INFO  o.s.b.a.w.s.WelcomePageHandlerMapping - Adding welcome page template: index
2026-04-16 15:26:43.559 [main        ] INFO  o.a.c.h.Http11NioProtocol - Starting ProtocolHandler ["http-nio-8090"]
2026-04-16 15:26:43.581 [main        ] INFO  o.s.b.w.e.t.TomcatWebServer - Tomcat started on port 8090 (http) with context path '/'
2026-04-16 15:26:43.590 [main        ] INFO  d.j.Main - Started Main in 2.028 seconds (process running for 2.236)
2026-04-16 15:26:43.593 [main        ] INFO  d.j.Main - Version: 1.0-SNAPSHOT (Build: 2026-04-16 15:20:08+00:00)
2026-04-16 15:26:43.595 [main        ] INFO  d.j.u.Properties - Try to find file: application.properties
2026-04-16 15:26:43.595 [main        ] INFO  d.j.u.Properties - Found 38 properties
2026-04-16 15:26:43.595 [main        ] INFO  d.j.u.Properties -    weather.input=tcp
2026-04-16 15:26:43.595 [main        ] INFO  d.j.u.Properties -    flow.avgtime.window=900000
2026-04-16 15:26:43.595 [main        ] INFO  d.j.u.Properties -    flow.tcp.port=5005
2026-04-16 15:26:43.595 [main        ] INFO  d.j.u.Properties -    consumption.udp.port=8889
2026-04-16 15:26:43.595 [main        ] INFO  d.j.u.Properties -    shaft.numberofscrews=2
2026-04-16 15:26:43.595 [main        ] INFO  d.j.u.Properties -    weather.tcp.hostname=192.168.1.4
2026-04-16 15:26:43.595 [main        ] INFO  d.j.u.Properties -    persistence.output.separator=,
2026-04-16 15:26:43.595 [main        ] INFO  d.j.u.Properties -    ais.udp.port=10200
2026-04-16 15:26:43.595 [main        ] INFO  d.j.u.Properties -    gps.tcp.port=28785
2026-04-16 15:26:43.595 [main        ] INFO  d.j.u.Properties -    ais.tcp.hostname=192.168.1.4
2026-04-16 15:26:43.595 [main        ] INFO  d.j.u.Properties -    flow.input=none
2026-04-16 15:26:43.595 [main        ] INFO  d.j.u.Properties -    shaft.udp.port=8890
2026-04-16 15:26:43.595 [main        ] INFO  d.j.u.Properties -    shaft.tcp.hostname=localhost
2026-04-16 15:26:43.595 [main        ] INFO  d.j.u.Properties -    shaft.input=udp
2026-04-16 15:26:43.595 [main        ] INFO  d.j.u.Properties -    gps.udp.port=10400
2026-04-16 15:26:43.595 [main        ] INFO  d.j.u.Properties -    ais.input=tcp
2026-04-16 15:26:43.595 [main        ] INFO  d.j.u.Properties -    server.port=8090
2026-04-16 15:26:43.595 [main        ] INFO  d.j.u.Properties -    time.statistics=60000
2026-04-16 15:26:43.595 [main        ] INFO  d.j.u.Properties -    flow.tcp.hostname=192.168.1.6
2026-04-16 15:26:43.595 [main        ] INFO  d.j.u.Properties -    consumption.tcp.port=8889
2026-04-16 15:26:43.595 [main        ] INFO  d.j.u.Properties -    persistence.output.duration=10000
2026-04-16 15:26:43.601 [main        ] INFO  d.j.u.Properties -    flow.avgtime.publish=15000
2026-04-16 15:26:43.601 [main        ] INFO  d.j.u.Properties -    ais.tcp.port=10200
2026-04-16 15:26:43.601 [main        ] INFO  d.j.u.Properties -    wind.avgtime.publish=15000
2026-04-16 15:26:43.601 [main        ] INFO  d.j.u.Properties -    weather.udp.port=10600
2026-04-16 15:26:43.601 [main        ] INFO  d.j.u.Properties -    shaft.tcp.port=8890
2026-04-16 15:26:43.601 [main        ] INFO  d.j.u.Properties -    publisher.port=8100
2026-04-16 15:26:43.601 [main        ] INFO  d.j.u.Properties -    persistence.output.path=persistence
2026-04-16 15:26:43.601 [main        ] INFO  d.j.u.Properties -    ferrymode.avgtime.publish=15000
2026-04-16 15:26:43.601 [main        ] INFO  d.j.u.Properties -    weather.tcp.port=10600
2026-04-16 15:26:43.601 [main        ] INFO  d.j.u.Properties -    persistence.output.quoted=true
2026-04-16 15:26:43.601 [main        ] INFO  d.j.u.Properties -    gps.input=tcp
2026-04-16 15:26:43.601 [main        ] INFO  d.j.u.Properties -    ferrymode.avgtime.window=210000
2026-04-16 15:26:43.601 [main        ] INFO  d.j.u.Properties -    consumption.tcp.hostname=localhost
2026-04-16 15:26:43.601 [main        ] INFO  d.j.u.Properties -    consumption.input=udp
2026-04-16 15:26:43.601 [main        ] INFO  d.j.u.Properties -    flow.udp.port=5005
2026-04-16 15:26:43.601 [main        ] INFO  d.j.u.Properties -    wind.avgtime.window=900000
2026-04-16 15:26:43.603 [main        ] INFO  d.j.u.Properties -    gps.tcp.hostname=192.168.1.3
2026-04-16 15:26:43.606 [Thread-2    ] INFO  d.j.m.r.TCPLineReceiver - Try to connect to 192.168.1.3:28785
2026-04-16 15:26:43.608 [Thread-1    ] INFO  d.j.d.g.GPSCollector - GPSCollector started
2026-04-16 15:26:43.608 [Thread-3    ] INFO  d.j.m.r.TCPLineReceiver - Try to connect to 192.168.1.4:10200
2026-04-16 15:26:43.608 [Thread-1    ] INFO  d.j.d.a.AISCollector - AISCollector started
2026-04-16 15:26:43.613 [Thread-1    ] INFO  d.j.d.w.WeatherCollector - WeatherCollector started
2026-04-16 15:26:43.615 [Thread-4    ] INFO  d.j.m.r.TCPLineReceiver - Try to connect to 192.168.1.4:10600
2026-04-16 15:26:43.615 [Publisher   ] INFO  d.j.p.Publisher - Running Publisher
2026-04-16 15:26:43.617 [Thread-1    ] INFO  d.j.d.c.ConsumptionCollector - ConsumptionCollector started
2026-04-16 15:26:43.618 [Publisher   ] INFO  d.j.p.Publisher - Wait on new connection on port: 8100
2026-04-16 15:26:43.618 [Thread-1    ] INFO  d.j.d.f.FlowCollector - Flow inputType is none.
2026-04-16 15:26:43.620 [Thread-1    ] INFO  d.j.d.s.ShaftCollector - ShaftCollector started
2026-04-16 15:26:44.145 [Thread-4    ] INFO  d.j.m.r.TCPLineReceiver - Time: 2026-04-16T15:26:44.144564Z, Message: $WIMWV,327.6,R,4.4,M,A*20
2026-04-16 15:26:44.145 [Thread-4    ] INFO  d.j.m.r.TCPLineReceiver - Time: 2026-04-16T15:26:44.145205Z, Message: $WIMWV,327.6,T,4.4,M,A*26
2026-04-16 15:26:44.176 [WeatherColle] WARN  d.j.d.w.WeatherParser - Could not transform relative windDirection to true north, because no headingInformation is available
2026-04-16 15:26:44.176 [WeatherColle] WARN  d.j.d.w.WeatherParser - Could not transform relative windDirection to true north, because no headingInformation is available
2026-04-16 15:26:44.621 [Thread-2    ] INFO  d.j.m.r.TCPLineReceiver - Time: 2026-04-16T15:26:44.621323Z, Message: $GPRMC,152644.00,A,5311.9142628,N,00831.0823985,E,0.0,,160426,3.7,E,D*1E
2026-04-16 15:26:44.621 [Thread-2    ] INFO  d.j.m.r.TCPLineReceiver - Time: 2026-04-16T15:26:44.621323Z, Message: $GPGGA,152644.00,5311.9142628,N,00831.0823985,E,4,22,0.6,4.2067,M,46.3506,M,1.0,4095*4E
2026-04-16 15:26:44.621 [Thread-2    ] INFO  d.j.m.r.TCPLineReceiver - Time: 2026-04-16T15:26:44.621323Z, Message: $GPHDT,,T*1B
2026-04-16 15:26:44.621 [Thread-2    ] INFO  d.j.m.r.TCPLineReceiver - Time: 2026-04-16T15:26:44.621323Z, Message: $GPGST,152644.00,0.268,0.007,0.005,11.638,0.007,0.005,0.010*67
2026-04-16 15:26:44.861 [Thread-3    ] INFO  d.j.m.r.TCPLineReceiver - Time: 2026-04-16T15:26:44.861790Z, Message: !AIVDO,1,1,,,139vb@0P00PVwRDNL<?>4?wD2000,0*08
2026-04-16 15:26:44.861 [Thread-3    ] INFO  d.j.m.r.TCPLineReceiver - Time: 2026-04-16T15:26:44.861790Z, Message: !AIVDM,1,1,,A,14Rfh2001p0VnALNNpihDP=D0d2h,0*1B
2026-04-16 15:26:44.861 [Thread-3    ] INFO  d.j.m.r.TCPLineReceiver - Time: 2026-04-16T15:26:44.861790Z, Message: !AIVDO,1,1,,,139vb@0P00PVwRDNL<?>4?wF2000,0*0A
2026-04-16 15:26:45.132 [Thread-4    ] INFO  d.j.m.r.TCPLineReceiver - Time: 2026-04-16T15:26:45.132526Z, Message: $WIMWV,327.9,R,4.6,M,A*2D
2026-04-16 15:26:45.132 [Thread-4    ] INFO  d.j.m.r.TCPLineReceiver - Time: 2026-04-16T15:26:45.132526Z, Message: $WIMWV,327.9,T,4.6,M,A*2B
2026-04-16 15:26:45.132 [Thread-4    ] INFO  d.j.m.r.TCPLineReceiver - Time: 2026-04-16T15:26:45.132526Z, Message: $WIMWV,327.9,R,4.6,M,A*2D
2026-04-16 15:26:45.132 [Thread-4    ] INFO  d.j.m.r.TCPLineReceiver - Time: 2026-04-16T15:26:45.132526Z, Message: $WIMWV,327.8,T,4.6,M,A*2A
2026-04-16 15:26:45.196 [WeatherColle] WARN  d.j.d.w.WeatherParser - Could not transform relative windDirection to true north, because no headingInformation is available
2026-04-16 15:26:45.196 [WeatherColle] WARN  d.j.d.w.WeatherParser - Could not transform relative windDirection to true north, because no headingInformation is available
2026-04-16 15:26:45.196 [WeatherColle] WARN  d.j.d.w.WeatherParser - Could not transform relative windDirection to true north, because no headingInformation is available
2026-04-16 15:26:45.196 [WeatherColle] WARN  d.j.d.w.WeatherParser - Could not transform relative windDirection to true north, because no headingInformation is available
2026-04-16 15:26:45.643 [Thread-2    ] INFO  d.j.m.r.TCPLineReceiver - Time: 2026-04-16T15:26:45.643503Z, Message: $GPRMC,152645.00,A,5311.9142632,N,00831.0824000,E,0.0,,160426,3.7,E,D*17
2026-04-16 15:26:45.643 [Thread-2    ] INFO  d.j.m.r.TCPLineReceiver - Time: 2026-04-16T15:26:45.643503Z, Message: $GPGGA,152645.00,5311.9142632,N,00831.0824000,E,4,22,0.6,4.2055,M,46.3506,M,1.0,4095*46
2026-04-16 15:26:45.643 [Thread-2    ] INFO  d.j.m.r.TCPLineReceiver - Time: 2026-04-16T15:26:45.643503Z, Message: $GPHDT,,T*1B
2026-04-16 15:26:45.643 [Thread-2    ] INFO  d.j.m.r.TCPLineReceiver - Time: 2026-04-16T15:26:45.643503Z, Message: $GPGST,152645.00,0.382,0.007,0.005,14.049,0.007,0.005,0.010*66
2026-04-16 15:26:46.120 [Thread-4    ] INFO  d.j.m.r.TCPLineReceiver - Time: 2026-04-16T15:26:46.120867Z, Message: $WIMWV,327.7,R,4.6,M,A*23
2026-04-16 15:26:46.121 [Thread-4    ] INFO  d.j.m.r.TCPLineReceiver - Time: 2026-04-16T15:26:46.121515Z, Message: $WIMWV,327.6,T,4.6,M,A*24
2026-04-16 15:26:46.121 [Thread-4    ] INFO  d.j.m.r.TCPLineReceiver - Time: 2026-04-16T15:26:46.121515Z, Message: $WIMWV,326.7,R,4.5,M,A*21
2026-04-16 15:26:46.121 [Thread-4    ] INFO  d.j.m.r.TCPLineReceiver - Time: 2026-04-16T15:26:46.121515Z, Message: $WIMWV,326.7,T,4.5,M,A*27
2026-04-16 15:26:46.152 [WeatherColle] WARN  d.j.d.w.WeatherParser - Could not transform relative windDirection to true north, because no headingInformation is available
2026-04-16 15:26:46.152 [WeatherColle] WARN  d.j.d.w.WeatherParser - Could not transform relative windDirection to true north, because no headingInformation is available
2026-04-16 15:26:46.152 [WeatherColle] WARN  d.j.d.w.WeatherParser - Could not transform relative windDirection to true north, because no headingInformation is available
2026-04-16 15:26:46.152 [WeatherColle] WARN  d.j.d.w.WeatherParser - Could not transform relative windDirection to true north, because no headingInformation is available
2026-04-16 15:26:46.665 [Thread-2    ] INFO  d.j.m.r.TCPLineReceiver - Time: 2026-04-16T15:26:46.665797Z, Message: $GPRMC,152646.00,A,5311.9142627,N,00831.0824013,E,0.0,,160426,3.7,E,D*12
2026-04-16 15:26:46.665 [Thread-2    ] INFO  d.j.m.r.TCPLineReceiver - Time: 2026-04-16T15:26:46.665797Z, Message: $GPGGA,152646.00,5311.9142627,N,00831.0824013,E,4,22,0.6,4.2063,M,46.3506,M,1.0,4095*46
2026-04-16 15:26:46.665 [Thread-2    ] INFO  d.j.m.r.TCPLineReceiver - Time: 2026-04-16T15:26:46.665797Z, Message: $GPHDT,,T*1B
2026-04-16 15:26:46.665 [Thread-2    ] INFO  d.j.m.r.TCPLineReceiver - Time: 2026-04-16T15:26:46.665797Z, Message: $GPGST,152646.00,0.411,0.007,0.005,14.972,0.007,0.005,0.010*69
2026-04-16 15:26:46.855 [Thread-3    ] INFO  d.j.m.r.TCPLineReceiver - Time: 2026-04-16T15:26:46.855176Z, Message: !AIVDM,1,1,,B,139qSn0P000`0wPNHi@I:OwJ0D1N,0*50
2026-04-16 15:26:46.855 [Thread-3    ] INFO  d.j.m.r.TCPLineReceiver - Time: 2026-04-16T15:26:46.855176Z, Message: !AIVDM,1,1,,B,139K8WP0000Wtm4NI3UAsASF00Rq,0*34
2026-04-16 15:26:46.855 [Thread-3    ] INFO  d.j.m.r.TCPLineReceiver - Time: 2026-04-16T15:26:46.855176Z, Message: !AIVDO,1,1,,,139vb@0P00PVwRDNL<?>4?wH2000,0*04
2026-04-16 15:26:46.855 [Thread-3    ] INFO  d.j.m.r.TCPLineReceiver - Time: 2026-04-16T15:26:46.855176Z, Message: !AIVDM,1,1,,A,139idk0000PVu;4NLNcAV5;H20S>,0*16
2026-04-16 15:26:46.855 [Thread-3    ] INFO  d.j.m.r.TCPLineReceiver - Time: 2026-04-16T15:26:46.855176Z, Message: !AIVDM,1,1,,A,34`V2gU1h0PVo`2NQ<Ei6nGH8Dkb,0*68
2026-04-16 15:26:46.855 [Thread-3    ] INFO  d.j.m.r.TCPLineReceiver - Time: 2026-04-16T15:26:46.855176Z, Message: !AIVDM,1,1,,A,13`hG?@P00PWt;4NIN5N4?wJ28Jj,0*16
2026-04-16 15:26:46.855 [Thread-3    ] INFO  d.j.m.r.TCPLineReceiver - Time: 2026-04-16T15:26:46.855176Z, Message: !AIVDO,1,1,,,139vb@0P00PVwRDNL<>v4?wJ2000,0*4F
2026-04-16 15:26:47.127 [Thread-4    ] INFO  d.j.m.r.TCPLineReceiver - Time: 2026-04-16T15:26:47.127449Z, Message: $WIMWV,326.7,R,4.5,M,A*21
2026-04-16 15:26:47.127 [Thread-4    ] INFO  d.j.m.r.TCPLineReceiver - Time: 2026-04-16T15:26:47.127449Z, Message: $WIMWV,326.7,T,4.5,M,A*27
2026-04-16 15:26:47.127 [Thread-4    ] INFO  d.j.m.r.TCPLineReceiver - Time: 2026-04-16T15:26:47.127449Z, Message: $WIMWV,327.4,R,4.6,M,A*20
2026-04-16 15:26:47.127 [Thread-4    ] INFO  d.j.m.r.TCPLineReceiver - Time: 2026-04-16T15:26:47.127449Z, Message: $WIMWV,327.3,T,4.6,M,A*21
2026-04-16 15:26:47.175 [WeatherColle] WARN  d.j.d.w.WeatherParser - Could not transform relative windDirection to true north, because no headingInformation is available
2026-04-16 15:26:47.175 [WeatherColle] WARN  d.j.d.w.WeatherParser - Could not transform relative windDirection to true north, because no headingInformation is available
2026-04-16 15:26:47.175 [WeatherColle] WARN  d.j.d.w.WeatherParser - Could not transform relative windDirection to true north, because no headingInformation is available
2026-04-16 15:26:47.175 [WeatherColle] WARN  d.j.d.w.WeatherParser - Could not transform relative windDirection to true north, because no headingInformation is available
2026-04-16 15:26:47.688 [Thread-2    ] INFO  d.j.m.r.TCPLineReceiver - Time: 2026-04-16T15:26:47.688743Z, Message: $GPRMC,152647.00,A,5311.9142648,N,00831.0824004,E,0.0,,160426,3.7,E,D*1C
2026-04-16 15:26:47.688 [Thread-2    ] INFO  d.j.m.r.TCPLineReceiver - Time: 2026-04-16T15:26:47.688743Z, Message: $GPGGA,152647.00,5311.9142648,N,00831.0824004,E,4,22,0.6,4.2064,M,46.3506,M,1.0,4095*4F
2026-04-16 15:26:47.688 [Thread-2    ] INFO  d.j.m.r.TCPLineReceiver - Time: 2026-04-16T15:26:47.688743Z, Message: $GPHDT,,T*1B
2026-04-16 15:26:47.688 [Thread-2    ] INFO  d.j.m.r.TCPLineReceiver - Time: 2026-04-16T15:26:47.688743Z, Message: $GPGST,152647.00,0.420,0.008,0.005,15.325,0.007,0.005,0.010*6C
2026-04-16 15:26:47.991 [Thread-3    ] INFO  d.j.m.r.TCPLineReceiver - Time: 2026-04-16T15:26:47.991315Z, Message: !AIVDM,1,1,,B,139LOfPP00PVveFNL6iN4?wL2<1V,0*62
2026-04-16 15:26:47.991 [Thread-3    ] INFO  d.j.m.r.TCPLineReceiver - Time: 2026-04-16T15:26:47.991315Z, Message: !AIVDM,1,1,,B,13aIAuPP00PVgc4NMCP@0?wL2HKC,0*1B
2026-04-16 15:26:47.991 [Thread-3    ] INFO  d.j.m.r.TCPLineReceiver - Time: 2026-04-16T15:26:47.991315Z, Message: !AIVDM,1,1,,A,139o31PP00PW;1hNKPBf4?wL2@KG,0*2A
2026-04-16 15:26:47.991 [Thread-3    ] INFO  d.j.m.r.TCPLineReceiver - Time: 2026-04-16T15:26:47.991315Z, Message: !AIVDO,1,1,,,139vb@0P00PVwRDNL<>v4?wL2000,0*49
2026-04-16 15:26:47.991 [Thread-3    ] INFO  d.j.m.r.TCPLineReceiver - Time: 2026-04-16T15:26:47.991315Z, Message: !AIVDM,1,1,,B,339f0<P016PVp5HNLp3El4UL26f3,0*0E
2026-04-16 15:26:48.118 [Thread-4    ] INFO  d.j.m.r.TCPLineReceiver - Time: 2026-04-16T15:26:48.118910Z, Message: $WIMWV,326.7,R,4.5,M,A*21
2026-04-16 15:26:48.118 [Thread-4    ] INFO  d.j.m.r.TCPLineReceiver - Time: 2026-04-16T15:26:48.118910Z, Message: $WIMWV,326.6,T,4.5,M,A*26
2026-04-16 15:26:48.118 [Thread-4    ] INFO  d.j.m.r.TCPLineReceiver - Time: 2026-04-16T15:26:48.118910Z, Message: $WIMWV,327.4,R,4.7,M,A*21
2026-04-16 15:26:48.118 [Thread-4    ] INFO  d.j.m.r.TCPLineReceiver - Time: 2026-04-16T15:26:48.118910Z, Message: $WIMWV,327.4,T,4.7,M,A*27
2026-04-16 15:26:48.134 [WeatherColle] WARN  d.j.d.w.WeatherParser - Could not transform relative windDirection to true north, because no headingInformation is available
2026-04-16 15:26:48.134 [WeatherColle] WARN  d.j.d.w.WeatherParser - Could not transform relative windDirection to true north, because no headingInformation is available
2026-04-16 15:26:48.134 [WeatherColle] WARN  d.j.d.w.WeatherParser - Could not transform relative windDirection to true north, because no headingInformation is available
2026-04-16 15:26:48.134 [WeatherColle] WARN  d.j.d.w.WeatherParser - Could not transform relative windDirection to true north, because no headingInformation is available
2026-04-16 15:26:48.714 [Thread-2    ] INFO  d.j.m.r.TCPLineReceiver - Time: 2026-04-16T15:26:48.714984Z, Message: $GPRMC,152648.00,A,5311.9142648,N,00831.0824021,E,0.0,,160426,3.7,E,D*14
2026-04-16 15:26:48.714 [Thread-2    ] INFO  d.j.m.r.TCPLineReceiver - Time: 2026-04-16T15:26:48.714984Z, Message: $GPGGA,152648.00,5311.9142648,N,00831.0824021,E,4,22,0.6,4.2035,M,46.3506,M,1.0,4095*43
2026-04-16 15:26:48.714 [Thread-2    ] INFO  d.j.m.r.TCPLineReceiver - Time: 2026-04-16T15:26:48.714984Z, Message: $GPHDT,,T*1B
2026-04-16 15:26:48.714 [Thread-2    ] INFO  d.j.m.r.TCPLineReceiver - Time: 2026-04-16T15:26:48.714984Z, Message: $GPGST,152648.00,0.478,0.008,0.005,15.912,0.007,0.005,0.010*60
2026-04-16 15:26:48.972 [Thread-3    ] INFO  d.j.m.r.TCPLineReceiver - Time: 2026-04-16T15:26:48.972701Z, Message: !AIVDO,1,1,,,139vb@0P00PVwRDNL<>v4?wN2000,0*4B
2026-04-16 15:26:49.114 [Thread-4    ] INFO  d.j.m.r.TCPLineReceiver - Time: 2026-04-16T15:26:49.114296Z, Message: $WIMWV,327.9,R,4.7,M,A*2C
2026-04-16 15:26:49.114 [Thread-4    ] INFO  d.j.m.r.TCPLineReceiver - Time: 2026-04-16T15:26:49.114296Z, Message: $WIMWV,327.9,T,4.7,M,A*2A
2026-04-16 15:26:49.114 [Thread-4    ] INFO  d.j.m.r.TCPLineReceiver - Time: 2026-04-16T15:26:49.114296Z, Message: $WIMWV,327.7,R,4.8,M,A*2D
2026-04-16 15:26:49.114 [Thread-4    ] INFO  d.j.m.r.TCPLineReceiver - Time: 2026-04-16T15:26:49.114296Z, Message: $WIMWV,327.7,T,4.8,M,A*2B
2026-04-16 15:26:49.145 [WeatherColle] WARN  d.j.d.w.WeatherParser - Could not transform relative windDirection to true north, because no headingInformation is available
2026-04-16 15:26:49.145 [WeatherColle] WARN  d.j.d.w.WeatherParser - Could not transform relative windDirection to true north, because no headingInformation is available
2026-04-16 15:26:49.145 [WeatherColle] WARN  d.j.d.w.WeatherParser - Could not transform relative windDirection to true north, because no headingInformation is available
2026-04-16 15:26:49.145 [WeatherColle] WARN  d.j.d.w.WeatherParser - Could not transform relative windDirection to true north, because no headingInformation is available
2026-04-16 15:26:49.739 [Thread-2    ] INFO  d.j.m.r.TCPLineReceiver - Time: 2026-04-16T15:26:49.739374Z, Message: $GPRMC,152649.00,A,5311.9142619,N,00831.0824014,E,0.0,,160426,3.7,E,D*17
2026-04-16 15:26:49.739 [Thread-2    ] INFO  d.j.m.r.TCPLineReceiver - Time: 2026-04-16T15:26:49.739374Z, Message: $GPGGA,152649.00,5311.9142619,N,00831.0824014,E,4,22,0.6,4.1983,M,46.3506,M,1.0,4095*47
2026-04-16 15:26:49.739 [Thread-2    ] INFO  d.j.m.r.TCPLineReceiver - Time: 2026-04-16T15:26:49.739374Z, Message: $GPHDT,,T*1B
2026-04-16 15:26:49.739 [Thread-2    ] INFO  d.j.m.r.TCPLineReceiver - Time: 2026-04-16T15:26:49.739374Z, Message: $GPGST,152649.00,0.341,0.008,0.005,15.516,0.007,0.005,0.010*64
2026-04-16 15:26:50.101 [Thread-4    ] INFO  d.j.m.r.TCPLineReceiver - Time: 2026-04-16T15:26:50.101384Z, Message: $WIMWV,327.4,R,4.8,M,A*2E
2026-04-16 15:26:50.101 [Thread-4    ] INFO  d.j.m.r.TCPLineReceiver - Time: 2026-04-16T15:26:50.101384Z, Message: $WIMWV,327.4,T,4.8,M,A*28
2026-04-16 15:26:50.101 [Thread-4    ] INFO  d.j.m.r.TCPLineReceiver - Time: 2026-04-16T15:26:50.101384Z, Message: $WIMWV,325.4,R,4.8,M,A*2C
2026-04-16 15:26:50.101 [Thread-4    ] INFO  d.j.m.r.TCPLineReceiver - Time: 2026-04-16T15:26:50.101384Z, Message: $WIMWV,325.4,T,4.8,M,A*2A
2026-04-16 15:26:50.149 [Thread-3    ] INFO  d.j.m.r.TCPLineReceiver - Time: 2026-04-16T15:26:50.149089Z, Message: !AIVDM,1,1,,B,13q5JI0P00PVdrRNLtHf4?wP2<1F,0*4F
2026-04-16 15:26:50.149 [Thread-3    ] INFO  d.j.m.r.TCPLineReceiver - Time: 2026-04-16T15:26:50.149089Z, Message: !AIVDM,1,1,,B,139g;o0P00PW6lDNKde@0?wP20SC,0*2A
2026-04-16 15:26:50.149 [Thread-3    ] INFO  d.j.m.r.TCPLineReceiver - Time: 2026-04-16T15:26:50.149089Z, Message: !AIVDO,1,1,,,139vb@0P00PVwRDNL<>v4?wP2000,0*55
2026-04-16 15:26:50.149 [Thread-3    ] INFO  d.j.m.r.TCPLineReceiver - Time: 2026-04-16T15:26:50.149089Z, Message: !AIVDM,1,1,,B,14hS;t51@0PWI=@NK9<HQ8kN0<1<,0*16
2026-04-16 15:26:50.149 [Thread-3    ] INFO  d.j.m.r.TCPLineReceiver - Time: 2026-04-16T15:26:50.149089Z, Message: !AIVDM,1,1,,A,139fviPP0aPWMdDNK4MpvgwR25q`,0*71
2026-04-16 15:26:50.165 [WeatherColle] WARN  d.j.d.w.WeatherParser - Could not transform relative windDirection to true north, because no headingInformation is available
2026-04-16 15:26:50.165 [WeatherColle] WARN  d.j.d.w.WeatherParser - Could not transform relative windDirection to true north, because no headingInformation is available
2026-04-16 15:26:50.165 [WeatherColle] WARN  d.j.d.w.WeatherParser - Could not transform relative windDirection to true north, because no headingInformation is available
2026-04-16 15:26:50.165 [WeatherColle] WARN  d.j.d.w.WeatherParser - Could not transform relative windDirection to true north, because no headingInformation is available
2026-04-16 15:26:50.761 [Thread-2    ] INFO  d.j.m.r.TCPLineReceiver - Time: 2026-04-16T15:26:50.761035Z, Message: $GPRMC,152650.00,A,5311.9142637,N,00831.0824013,E,0.0,,160426,3.7,E,D*14
2026-04-16 15:26:50.761 [Thread-2    ] INFO  d.j.m.r.TCPLineReceiver - Time: 2026-04-16T15:26:50.761035Z, Message: $GPGGA,152650.00,5311.9142637,N,00831.0824013,E,4,22,0.6,4.2031,M,46.3506,M,1.0,4095*47
2026-04-16 15:26:50.761 [Thread-2    ] INFO  d.j.m.r.TCPLineReceiver - Time: 2026-04-16T15:26:50.761035Z, Message: $GPHDT,,T*1B
2026-04-16 15:26:50.761 [Thread-2    ] INFO  d.j.m.r.TCPLineReceiver - Time: 2026-04-16T15:26:50.761035Z, Message: $GPGST,152650.00,0.370,0.008,0.005,15.922,0.007,0.005,0.010*65
2026-04-16 15:26:51.094 [Thread-4    ] INFO  d.j.m.r.TCPLineReceiver - Time: 2026-04-16T15:26:51.094867Z, Message: $WIMWV,325.4,R,4.9,M,A*2D
2026-04-16 15:26:51.094 [Thread-4    ] INFO  d.j.m.r.TCPLineReceiver - Time: 2026-04-16T15:26:51.094867Z, Message: $WIMWV,325.4,T,4.9,M,A*2B
2026-04-16 15:26:51.095 [Thread-4    ] INFO  d.j.m.r.TCPLineReceiver - Time: 2026-04-16T15:26:51.095878Z, Message: $WIMWV,326.7,R,4.9,M,A*2D
2026-04-16 15:26:51.095 [Thread-4    ] INFO  d.j.m.r.TCPLineReceiver - Time: 2026-04-16T15:26:51.095878Z, Message: $WIMWV,326.7,T,4.9,M,A*2B
2026-04-16 15:26:51.127 [WeatherColle] WARN  d.j.d.w.WeatherParser - Could not transform relative windDirection to true north, because no headingInformation is available
2026-04-16 15:26:51.127 [WeatherColle] WARN  d.j.d.w.WeatherParser - Could not transform relative windDirection to true north, because no headingInformation is available
2026-04-16 15:26:51.127 [WeatherColle] WARN  d.j.d.w.WeatherParser - Could not transform relative windDirection to true north, because no headingInformation is available
2026-04-16 15:26:51.127 [WeatherColle] WARN  d.j.d.w.WeatherParser - Could not transform relative windDirection to true north, because no headingInformation is available
2026-04-16 15:26:51.782 [Thread-2    ] INFO  d.j.m.r.TCPLineReceiver - Time: 2026-04-16T15:26:51.782949Z, Message: $GPRMC,152651.00,A,5311.9142652,N,00831.0824028,E,0.0,,160426,3.7,E,D*1E
2026-04-16 15:26:51.782 [Thread-2    ] INFO  d.j.m.r.TCPLineReceiver - Time: 2026-04-16T15:26:51.782949Z, Message: $GPGGA,152651.00,5311.9142652,N,00831.0824028,E,4,22,0.6,4.2024,M,46.3506,M,1.0,4095*49
2026-04-16 15:26:51.782 [Thread-2    ] INFO  d.j.m.r.TCPLineReceiver - Time: 2026-04-16T15:26:51.782949Z, Message: $GPHDT,,T*1B
2026-04-16 15:26:51.782 [Thread-2    ] INFO  d.j.m.r.TCPLineReceiver - Time: 2026-04-16T15:26:51.782949Z, Message: $GPGST,152651.00,0.343,0.007,0.005,15.986,0.007,0.005,0.010*65
2026-04-16 15:26:52.096 [Thread-4    ] INFO  d.j.m.r.TCPLineReceiver - Time: 2026-04-16T15:26:52.096717Z, Message: $WIMWV,325.6,R,4.8,M,A*2E
2026-04-16 15:26:52.096 [Thread-4    ] INFO  d.j.m.r.TCPLineReceiver - Time: 2026-04-16T15:26:52.096717Z, Message: $WIMWV,325.6,T,4.8,M,A*28
2026-04-16 15:26:52.096 [Thread-4    ] INFO  d.j.m.r.TCPLineReceiver - Time: 2026-04-16T15:26:52.096717Z, Message: $WIMWV,326.1,R,4.8,M,A*2A
2026-04-16 15:26:52.096 [Thread-4    ] INFO  d.j.m.r.TCPLineReceiver - Time: 2026-04-16T15:26:52.096717Z, Message: $WIMWV,326.1,T,4.8,M,A*2C
2026-04-16 15:26:52.144 [WeatherColle] WARN  d.j.d.w.WeatherParser - Could not transform relative windDirection to true north, because no headingInformation is available
2026-04-16 15:26:52.144 [WeatherColle] WARN  d.j.d.w.WeatherParser - Could not transform relative windDirection to true north, because no headingInformation is available
2026-04-16 15:26:52.144 [WeatherColle] WARN  d.j.d.w.WeatherParser - Could not transform relative windDirection to true north, because no headingInformation is available
2026-04-16 15:26:52.144 [WeatherColle] WARN  d.j.d.w.WeatherParser - Could not transform relative windDirection to true north, because no headingInformation is available
2026-04-16 15:26:52.813 [Thread-2    ] INFO  d.j.m.r.TCPLineReceiver - Time: 2026-04-16T15:26:52.813867Z, Message: $GPRMC,152652.00,A,5311.9142643,N,00831.0824040,E,0.0,,160426,3.7,E,D*13
2026-04-16 15:26:52.813 [Thread-2    ] INFO  d.j.m.r.TCPLineReceiver - Time: 2026-04-16T15:26:52.813867Z, Message: $GPGGA,152652.00,5311.9142643,N,00831.0824040,E,4,22,0.6,4.2023,M,46.3506,M,1.0,4095*43
2026-04-16 15:26:52.813 [Thread-2    ] INFO  d.j.m.r.TCPLineReceiver - Time: 2026-04-16T15:26:52.813867Z, Message: $GPHDT,,T*1B
2026-04-16 15:26:52.813 [Thread-2    ] INFO  d.j.m.r.TCPLineReceiver - Time: 2026-04-16T15:26:52.813867Z, Message: $GPGST,152652.00,0.300,0.007,0.005,15.579,0.007,0.005,0.010*6D
2026-04-16 15:26:53.085 [Thread-4    ] INFO  d.j.m.r.TCPLineReceiver - Time: 2026-04-16T15:26:53.085155Z, Message: $WIMWV,326.1,R,4.9,M,A*2B
2026-04-16 15:26:53.085 [Thread-4    ] INFO  d.j.m.r.TCPLineReceiver - Time: 2026-04-16T15:26:53.085155Z, Message: $WIMWV,326.1,T,4.9,M,A*2D
2026-04-16 15:26:53.085 [Thread-4    ] INFO  d.j.m.r.TCPLineReceiver - Time: 2026-04-16T15:26:53.085155Z, Message: $WIMWV,325.0,R,4.9,M,A*29
2026-04-16 15:26:53.085 [Thread-4    ] INFO  d.j.m.r.TCPLineReceiver - Time: 2026-04-16T15:26:53.085155Z, Message: $WIMWV,325.0,T,4.9,M,A*2F
2026-04-16 15:26:53.101 [WeatherColle] WARN  d.j.d.w.WeatherParser - Could not transform relative windDirection to true north, because no headingInformation is available
2026-04-16 15:26:53.101 [WeatherColle] WARN  d.j.d.w.WeatherParser - Could not transform relative windDirection to true north, because no headingInformation is available
2026-04-16 15:26:53.101 [WeatherColle] WARN  d.j.d.w.WeatherParser - Could not transform relative windDirection to true north, because no headingInformation is available
2026-04-16 15:26:53.101 [WeatherColle] WARN  d.j.d.w.WeatherParser - Could not transform relative windDirection to true north, because no headingInformation is available
2026-04-16 15:26:53.133 [Thread-3    ] INFO  d.j.m.r.TCPLineReceiver - Time: 2026-04-16T15:26:53.133645Z, Message: !AIVDO,1,1,,,139vb@0P00PVwRDNL<>v4?wR2000,0*57
2026-04-16 15:26:53.133 [Thread-3    ] INFO  d.j.m.r.TCPLineReceiver - Time: 2026-04-16T15:26:53.133645Z, Message: !AIVDM,1,1,,A,13aHle@P00PWt8FNIMh>4?wT2<1@,0*52
2026-04-16 15:26:53.133 [Thread-3    ] INFO  d.j.m.r.TCPLineReceiver - Time: 2026-04-16T15:26:53.133645Z, Message: !AIVDM,1,1,,B,13:1boRP00PVgd2NMB@v4?wT20Rg,0*7C
2026-04-16 15:26:53.133 [Thread-3    ] INFO  d.j.m.r.TCPLineReceiver - Time: 2026-04-16T15:26:53.133645Z, Message: !AIVDO,1,1,,A,139vb@0P00PVwRDNL<>N4?wT2@Mc,0*76
2026-04-16 15:26:53.133 [Thread-3    ] INFO  d.j.m.r.TCPLineReceiver - Time: 2026-04-16T15:26:53.133645Z, Message: !AIVDO,1,1,,,139vb@0P00PVwRDNL<>N4?wT2000,0*69
2026-04-16 15:26:53.133 [Thread-3    ] INFO  d.j.m.r.TCPLineReceiver - Time: 2026-04-16T15:26:53.133645Z, Message: !AIVDM,2,1,5,A,53q5JI800001=;C7300L48T0000000000000001S8`;63u8i02PTPBi,0*60
2026-04-16 15:26:53.133 [Thread-3    ] INFO  d.j.m.r.TCPLineReceiver - Time: 2026-04-16T15:26:53.133645Z, Message: !AIVDM,2,2,5,A,@000000000000000,2*61
2026-04-16 15:26:53.133 [Thread-3    ] INFO  d.j.m.r.TCPLineReceiver - Time: 2026-04-16T15:26:53.133645Z, Message: !AIVDM,1,1,,A,83q5JI0j2d=<<ed<<1T0a?`539@0,0*7E
2026-04-16 15:26:53.133 [Thread-3    ] INFO  d.j.m.r.TCPLineReceiver - Time: 2026-04-16T15:26:53.133645Z, Message: !AIVDO,1,1,,,139vb@0P00PVwRDNL<>N4?wV2000,0*6B
2026-04-16 15:26:53.133 [Thread-3    ] INFO  d.j.m.r.TCPLineReceiver - Time: 2026-04-16T15:26:53.133645Z, Message: !AIVDM,1,1,,A,139gL<0P0mPWM>FNK5;S2Ow`2Jm;,0*19
2026-04-16 15:26:53.165 [AISCollector] WARN  d.j.d.a.AISParser - Could not parse AIS Message: !AIVDM,1,1,,A,83q5JI0j2d=<<ed<<1T0a?`539@0,0*7E Current collected payload: 83q5JI0j2d=<<ed<<1T0a?`539@0
2026-04-16 15:26:53.837 [Thread-2    ] INFO  d.j.m.r.TCPLineReceiver - Time: 2026-04-16T15:26:53.837496Z, Message: $GPRMC,152653.00,A,5311.9142659,N,00831.0824041,E,0.0,,160426,3.7,E,D*18
2026-04-16 15:26:53.837 [Thread-2    ] INFO  d.j.m.r.TCPLineReceiver - Time: 2026-04-16T15:26:53.837496Z, Message: $GPGGA,152653.00,5311.9142659,N,00831.0824041,E,4,22,0.6,4.2053,M,46.3506,M,1.0,4095*4F
2026-04-16 15:26:53.837 [Thread-2    ] INFO  d.j.m.r.TCPLineReceiver - Time: 2026-04-16T15:26:53.837496Z, Message: $GPHDT,,T*1B
2026-04-16 15:26:53.837 [Thread-2    ] INFO  d.j.m.r.TCPLineReceiver - Time: 2026-04-16T15:26:53.837496Z, Message: $GPGST,152653.00,0.256,0.008,0.005,15.086,0.007,0.005,0.010*64
2026-04-16 15:26:54.075 [Thread-4    ] INFO  d.j.m.r.TCPLineReceiver - Time: 2026-04-16T15:26:54.075331Z, Message: $WIMWV,326.1,R,4.7,M,A*25
2026-04-16 15:26:54.075 [Thread-4    ] INFO  d.j.m.r.TCPLineReceiver - Time: 2026-04-16T15:26:54.075331Z, Message: $WIMWV,326.1,T,4.7,M,A*23
2026-04-16 15:26:54.075 [Thread-4    ] INFO  d.j.m.r.TCPLineReceiver - Time: 2026-04-16T15:26:54.075331Z, Message: $WIMWV,325.0,R,4.7,M,A*27
2026-04-16 15:26:54.075 [Thread-4    ] INFO  d.j.m.r.TCPLineReceiver - Time: 2026-04-16T15:26:54.075331Z, Message: $WIMWV,325.0,T,4.7,M,A*21
2026-04-16 15:26:54.107 [WeatherColle] WARN  d.j.d.w.WeatherParser - Could not transform relative windDirection to true north, because no headingInformation is available
2026-04-16 15:26:54.107 [WeatherColle] WARN  d.j.d.w.WeatherParser - Could not transform relative windDirection to true north, because no headingInformation is available
2026-04-16 15:26:54.107 [WeatherColle] WARN  d.j.d.w.WeatherParser - Could not transform relative windDirection to true north, because no headingInformation is available
2026-04-16 15:26:54.107 [WeatherColle] WARN  d.j.d.w.WeatherParser - Could not transform relative windDirection to true north, because no headingInformation is available
2026-04-16 15:26:54.123 [Thread-3    ] INFO  d.j.m.r.TCPLineReceiver - Time: 2026-04-16T15:26:54.123248Z, Message: !AIVDO,1,1,,,139vb@0P00PVwRDNL<>N4?w`2000,0*5D
2026-04-16 15:26:54.123 [Thread-3    ] INFO  d.j.m.r.TCPLineReceiver - Time: 2026-04-16T15:26:54.123248Z, Message: !AIVDM,1,1,,A,13l0ft001s0VqgdNRpmMqK9V05q`,0*31
2026-04-16 15:26:54.856 [Thread-2    ] INFO  d.j.m.r.TCPLineReceiver - Time: 2026-04-16T15:26:54.856458Z, Message: $GPRMC,152654.00,A,5311.9142656,N,00831.0824058,E,0.0,,160426,3.7,E,D*18
2026-04-16 15:26:54.856 [Thread-2    ] INFO  d.j.m.r.TCPLineReceiver - Time: 2026-04-16T15:26:54.856458Z, Message: $GPGGA,152654.00,5311.9142656,N,00831.0824058,E,4,22,0.6,4.2037,M,46.3506,M,1.0,4095*4D
2026-04-16 15:26:54.856 [Thread-2    ] INFO  d.j.m.r.TCPLineReceiver - Time: 2026-04-16T15:26:54.856458Z, Message: $GPHDT,,T*1B
2026-04-16 15:26:54.856 [Thread-2    ] INFO  d.j.m.r.TCPLineReceiver - Time: 2026-04-16T15:26:54.856458Z, Message: $GPGST,152654.00,0.291,0.008,0.005,15.419,0.007,0.005,0.010*6A
2026-04-16 15:26:55.079 [Thread-4    ] INFO  d.j.m.r.TCPLineReceiver - Time: 2026-04-16T15:26:55.079385Z, Message: $WIMWV,322.4,R,4.7,M,A*24
2026-04-16 15:26:55.079 [Thread-4    ] INFO  d.j.m.r.TCPLineReceiver - Time: 2026-04-16T15:26:55.079889Z, Message: $WIMWV,322.4,T,4.7,M,A*22
2026-04-16 15:26:55.079 [Thread-4    ] INFO  d.j.m.r.TCPLineReceiver - Time: 2026-04-16T15:26:55.079889Z, Message: $WIMWV,324.1,R,4.6,M,A*26
2026-04-16 15:26:55.079 [Thread-4    ] INFO  d.j.m.r.TCPLineReceiver - Time: 2026-04-16T15:26:55.079889Z, Message: $WIMWV,324.1,T,4.6,M,A*20
2026-04-16 15:26:55.126 [WeatherColle] WARN  d.j.d.w.WeatherParser - Could not transform relative windDirection to true north, because no headingInformation is available
2026-04-16 15:26:55.126 [WeatherColle] WARN  d.j.d.w.WeatherParser - Could not transform relative windDirection to true north, because no headingInformation is available
2026-04-16 15:26:55.126 [WeatherColle] WARN  d.j.d.w.WeatherParser - Could not transform relative windDirection to true north, because no headingInformation is available
2026-04-16 15:26:55.126 [WeatherColle] WARN  d.j.d.w.WeatherParser - Could not transform relative windDirection to true north, because no headingInformation is available
2026-04-16 15:26:55.884 [Thread-2    ] INFO  d.j.m.r.TCPLineReceiver - Time: 2026-04-16T15:26:55.884760Z, Message: $GPRMC,152655.00,A,5311.9142657,N,00831.0824064,E,0.0,,160426,3.7,E,D*17
2026-04-16 15:26:55.884 [Thread-2    ] INFO  d.j.m.r.TCPLineReceiver - Time: 2026-04-16T15:26:55.884760Z, Message: $GPGGA,152655.00,5311.9142657,N,00831.0824064,E,4,22,0.6,4.2015,M,46.3506,M,1.0,4095*42
2026-04-16 15:26:55.884 [Thread-2    ] INFO  d.j.m.r.TCPLineReceiver - Time: 2026-04-16T15:26:55.884760Z, Message: $GPHDT,,T*1B
2026-04-16 15:26:55.884 [Thread-2    ] INFO  d.j.m.r.TCPLineReceiver - Time: 2026-04-16T15:26:55.884760Z, Message: $GPGST,152655.00,0.348,0.008,0.005,15.324,0.007,0.005,0.010*67
2026-04-16 15:26:56.065 [Thread-4    ] INFO  d.j.m.r.TCPLineReceiver - Time: 2026-04-16T15:26:56.065058Z, Message: $WIMWV,325.2,R,4.5,M,A*27
2026-04-16 15:26:56.065 [Thread-4    ] INFO  d.j.m.r.TCPLineReceiver - Time: 2026-04-16T15:26:56.065058Z, Message: $WIMWV,325.2,T,4.5,M,A*21
2026-04-16 15:26:56.065 [Thread-4    ] INFO  d.j.m.r.TCPLineReceiver - Time: 2026-04-16T15:26:56.065058Z, Message: $WIMWV,329.6,R,4.9,M,A*23
2026-04-16 15:26:56.065 [Thread-4    ] INFO  d.j.m.r.TCPLineReceiver - Time: 2026-04-16T15:26:56.065058Z, Message: $WIMWV,329.6,T,4.9,M,A*25
2026-04-16 15:26:56.080 [WeatherColle] WARN  d.j.d.w.WeatherParser - Could not transform relative windDirection to true north, because no headingInformation is available
2026-04-16 15:26:56.080 [WeatherColle] WARN  d.j.d.w.WeatherParser - Could not transform relative windDirection to true north, because no headingInformation is available
2026-04-16 15:26:56.080 [WeatherColle] WARN  d.j.d.w.WeatherParser - Could not transform relative windDirection to true north, because no headingInformation is available
2026-04-16 15:26:56.080 [WeatherColle] WARN  d.j.d.w.WeatherParser - Could not transform relative windDirection to true north, because no headingInformation is available
2026-04-16 15:26:56.223 [Thread-3    ] INFO  d.j.m.r.TCPLineReceiver - Time: 2026-04-16T15:26:56.223024Z, Message: !AIVDM,1,1,,A,139fvigP?w<tSF0l4Q@>4?wv1`Ka,0*70
2026-04-16 15:26:56.223 [Thread-3    ] INFO  d.j.m.r.TCPLineReceiver - Time: 2026-04-16T15:26:56.223024Z, Message: !AIVDO,1,1,,,139vb@0P00PVwRDNL<>>4?wb2000,0*2F
2026-04-16 15:26:56.223 [Thread-3    ] INFO  d.j.m.r.TCPLineReceiver - Time: 2026-04-16T15:26:56.223024Z, Message: !AIVDM,1,1,,B,139idk0000PVu;4NLNcGj5;d2<14,0*67
2026-04-16 15:26:56.223 [Thread-3    ] INFO  d.j.m.r.TCPLineReceiver - Time: 2026-04-16T15:26:56.223024Z, Message: !AIVDM,1,1,,A,139K8WP0000Wtm6NI3S1sAS`00T3,0*21
2026-04-16 15:26:56.223 [Thread-3    ] INFO  d.j.m.r.TCPLineReceiver - Time: 2026-04-16T15:26:56.223024Z, Message: !AIVDO,1,1,,,139vb@0P00PVwRDNL<>>4?wd2000,0*29
2026-04-16 15:26:56.223 [Thread-3    ] INFO  d.j.m.r.TCPLineReceiver - Time: 2026-04-16T15:26:56.223024Z, Message: !AIVDM,1,1,,A,139qSn0P000`0wRNHi@KTOwh00R:,0*7C
2026-04-16 15:26:56.907 [Thread-2    ] INFO  d.j.m.r.TCPLineReceiver - Time: 2026-04-16T15:26:56.907943Z, Message: $GPRMC,152656.00,A,5311.9142652,N,00831.0824037,E,0.0,,160426,3.7,E,D*17
2026-04-16 15:26:56.907 [Thread-2    ] INFO  d.j.m.r.TCPLineReceiver - Time: 2026-04-16T15:26:56.907943Z, Message: $GPGGA,152656.00,5311.9142652,N,00831.0824037,E,4,22,0.6,4.2037,M,46.3506,M,1.0,4095*42
2026-04-16 15:26:56.907 [Thread-2    ] INFO  d.j.m.r.TCPLineReceiver - Time: 2026-04-16T15:26:56.907943Z, Message: $GPHDT,,T*1B
2026-04-16 15:26:56.907 [Thread-2    ] INFO  d.j.m.r.TCPLineReceiver - Time: 2026-04-16T15:26:56.907943Z, Message: $GPGST,152656.00,0.348,0.008,0.005,15.581,0.007,0.005,0.010*6D
2026-04-16 15:26:56.936 [Thread-3    ] INFO  d.j.m.r.TCPLineReceiver - Time: 2026-04-16T15:26:56.936599Z, Message: !AIVDM,1,1,,B,139o31PP00PW;1jNKPC>4?wf28Pd,0*18
2026-04-16 15:26:56.936 [Thread-3    ] INFO  d.j.m.r.TCPLineReceiver - Time: 2026-04-16T15:26:56.936599Z, Message: !AIVDO,1,1,,,139vb@0P00PVwRHNL<>>4?wf2000,0*27
2026-04-16 15:26:57.064 [Thread-4    ] INFO  d.j.m.r.TCPLineReceiver - Time: 2026-04-16T15:26:57.064362Z, Message: $WIMWV,330.1,R,4.7,M,A*22
2026-04-16 15:26:57.064 [Thread-4    ] INFO  d.j.m.r.TCPLineReceiver - Time: 2026-04-16T15:26:57.064362Z, Message: $WIMWV,330.1,T,4.7,M,A*24
2026-04-16 15:26:57.064 [Thread-4    ] INFO  d.j.m.r.TCPLineReceiver - Time: 2026-04-16T15:26:57.064362Z, Message: $WIMWV,331.6,R,4.8,M,A*2B
2026-04-16 15:26:57.064 [Thread-4    ] INFO  d.j.m.r.TCPLineReceiver - Time: 2026-04-16T15:26:57.064362Z, Message: $WIMWV,331.6,T,4.8,M,A*2D
2026-04-16 15:26:57.096 [WeatherColle] WARN  d.j.d.w.WeatherParser - Could not transform relative windDirection to true north, because no headingInformation is available
2026-04-16 15:26:57.096 [WeatherColle] WARN  d.j.d.w.WeatherParser - Could not transform relative windDirection to true north, because no headingInformation is available
2026-04-16 15:26:57.096 [WeatherColle] WARN  d.j.d.w.WeatherParser - Could not transform relative windDirection to true north, because no headingInformation is available
2026-04-16 15:26:57.096 [WeatherColle] WARN  d.j.d.w.WeatherParser - Could not transform relative windDirection to true north, because no headingInformation is available
2026-04-16 15:26:57.421 [Thread-2    ] INFO  d.j.m.r.TCPLineReceiver - Time: 2026-04-16T15:26:57.421531Z, Message: $GPRMC,152657.00,A,5311.9142641,N,00831.0824039,E,0.0,,160426,3.7,E,D*1A
2026-04-16 15:26:57.421 [Thread-2    ] INFO  d.j.m.r.TCPLineReceiver - Time: 2026-04-16T15:26:57.421531Z, Message: $GPGGA,152657.00,5311.9142641,N,00831.0824039,E,4,22,0.6,4.1988,M,46.3506,M,1.0,4095*41
2026-04-16 15:26:57.421 [Thread-2    ] INFO  d.j.m.r.TCPLineReceiver - Time: 2026-04-16T15:26:57.421531Z, Message: $GPHDT,,T*1B
2026-04-16 15:26:57.421 [Thread-2    ] INFO  d.j.m.r.TCPLineReceiver - Time: 2026-04-16T15:26:57.421531Z, Message: $GPGST,152657.00,0.449,0.008,0.005,16.729,0.007,0.006,0.010*6A
2026-04-16 15:26:58.049 [Thread-4    ] INFO  d.j.m.r.TCPLineReceiver - Time: 2026-04-16T15:26:58.049615Z, Message: $WIMWV,332.5,R,4.5,M,A*26
2026-04-16 15:26:58.049 [Thread-4    ] INFO  d.j.m.r.TCPLineReceiver - Time: 2026-04-16T15:26:58.049615Z, Message: $WIMWV,332.5,T,4.5,M,A*20
2026-04-16 15:26:58.049 [Thread-4    ] INFO  d.j.m.r.TCPLineReceiver - Time: 2026-04-16T15:26:58.049615Z, Message: $WIMWV,331.8,R,4.4,M,A*29
2026-04-16 15:26:58.049 [Thread-4    ] INFO  d.j.m.r.TCPLineReceiver - Time: 2026-04-16T15:26:58.049615Z, Message: $WIMWV,331.8,T,4.4,M,A*2F
2026-04-16 15:26:58.113 [WeatherColle] WARN  d.j.d.w.WeatherParser - Could not transform relative windDirection to true north, because no headingInformation is available
2026-04-16 15:26:58.113 [WeatherColle] WARN  d.j.d.w.WeatherParser - Could not transform relative windDirection to true north, because no headingInformation is available
2026-04-16 15:26:58.113 [WeatherColle] WARN  d.j.d.w.WeatherParser - Could not transform relative windDirection to true north, because no headingInformation is available
2026-04-16 15:26:58.113 [WeatherColle] WARN  d.j.d.w.WeatherParser - Could not transform relative windDirection to true north, because no headingInformation is available
2026-04-16 15:26:58.445 [Thread-2    ] INFO  d.j.m.r.TCPLineReceiver - Time: 2026-04-16T15:26:58.445328Z, Message: $GPRMC,152658.00,A,5311.9142619,N,00831.0824031,E,0.0,,160426,3.7,E,D*10
2026-04-16 15:26:58.445 [Thread-2    ] INFO  d.j.m.r.TCPLineReceiver - Time: 2026-04-16T15:26:58.445328Z, Message: $GPGGA,152658.00,5311.9142619,N,00831.0824031,E,4,22,0.6,4.1970,M,46.3506,M,1.0,4095*4C
2026-04-16 15:26:58.445 [Thread-2    ] INFO  d.j.m.r.TCPLineReceiver - Time: 2026-04-16T15:26:58.445328Z, Message: $GPHDT,,T*1B
2026-04-16 15:26:58.446 [Thread-2    ] INFO  d.j.m.r.TCPLineReceiver - Time: 2026-04-16T15:26:58.446837Z, Message: $GPGST,152658.00,0.612,0.007,0.005,16.228,0.007,0.006,0.010*62
2026-04-16 15:26:58.621 [RouteSegment] INFO  d.j.a.r.RouteSegmentatorD - Try to determine route(15)
2026-04-16 15:26:58.621 [FerryModeCal] INFO  d.j.a.f.FerryModeCalculator - Set ferrymode to value: 1 (Farge: true, JuliusPlate: false, Roennebeck: false)
2026-04-16 15:26:58.621 [RouteSegment] INFO  d.j.a.r.RouteSegmentatorD - There are not enough sections for creating a route: containsAAndLowSpeed: false, containsBAndLowSpeed: true, containsNONE: false
2026-04-16 15:26:59.048 [Thread-4    ] INFO  d.j.m.r.TCPLineReceiver - Time: 2026-04-16T15:26:59.048729Z, Message: $WIMWV,332.5,R,4.4,M,A*27
2026-04-16 15:26:59.048 [Thread-4    ] INFO  d.j.m.r.TCPLineReceiver - Time: 2026-04-16T15:26:59.048729Z, Message: $WIMWV,332.5,T,4.4,M,A*21
2026-04-16 15:26:59.048 [Thread-4    ] INFO  d.j.m.r.TCPLineReceiver - Time: 2026-04-16T15:26:59.048729Z, Message: $WIMWV,336.3,R,4.2,M,A*23
2026-04-16 15:26:59.048 [Thread-4    ] INFO  d.j.m.r.TCPLineReceiver - Time: 2026-04-16T15:26:59.048729Z, Message: $WIMWV,336.2,T,4.2,M,A*24
2026-04-16 15:26:59.064 [WeatherColle] WARN  d.j.d.w.WeatherParser - Could not transform relative windDirection to true north, because no headingInformation is available
2026-04-16 15:26:59.064 [WeatherColle] WARN  d.j.d.w.WeatherParser - Could not transform relative windDirection to true north, because no headingInformation is available
2026-04-16 15:26:59.064 [WeatherColle] WARN  d.j.d.w.WeatherParser - Could not transform relative windDirection to true north, because no headingInformation is available
2026-04-16 15:26:59.064 [WeatherColle] WARN  d.j.d.w.WeatherParser - Could not transform relative windDirection to true north, because no headingInformation is available
2026-04-16 15:26:59.351 [Thread-3    ] INFO  d.j.m.r.TCPLineReceiver - Time: 2026-04-16T15:26:59.351634Z, Message: !AIVDM,1,1,,A,139LOfPP00PVveLNL6jv4?wh2D1V,0*0C
2026-04-16 15:26:59.351 [Thread-3    ] INFO  d.j.m.r.TCPLineReceiver - Time: 2026-04-16T15:26:59.351634Z, Message: !AIVDO,1,1,,,139vb@0P00PVwRHNL<>>4?wh2000,0*29
2026-04-16 15:26:59.351 [Thread-3    ] INFO  d.j.m.r.TCPLineReceiver - Time: 2026-04-16T15:26:59.351634Z, Message: !AIVDM,1,1,,A,33aIAuPP00PVgc6NMCPP0?wj2C33,0*2D
2026-04-16 15:26:59.351 [Thread-3    ] INFO  d.j.m.r.TCPLineReceiver - Time: 2026-04-16T15:26:59.351634Z, Message: !AIVDM,1,1,,B,139fviPP0ePWM`JNK4>q4?wj25q`,0*2C
2026-04-16 15:26:59.351 [Thread-3    ] INFO  d.j.m.r.TCPLineReceiver - Time: 2026-04-16T15:26:59.351634Z, Message: !AIVDM,1,1,,A,14hS;t5100PWI=0NK9;UT`kh0L1=,0*05
2026-04-16 15:26:59.351 [Thread-3    ] INFO  d.j.m.r.TCPLineReceiver - Time: 2026-04-16T15:26:59.351634Z, Message: !AIVDM,1,1,,A,139f0<P016PVp;6NLoEEmTSj2D0f,0*26
2026-04-16 15:26:59.351 [Thread-3    ] INFO  d.j.m.r.TCPLineReceiver - Time: 2026-04-16T15:26:59.351634Z, Message: !AIVDO,1,1,,,139vb@0P00PVwRHNL<=f4?wj2000,0*70
2026-04-16 15:26:59.351 [Thread-3    ] INFO  d.j.m.r.TCPLineReceiver - Time: 2026-04-16T15:26:59.351634Z, Message: !AIVDM,1,1,,A,13q5JI0P00PVdrTNLtHf4?wl20SH,0*16
2026-04-16 15:26:59.469 [Thread-2    ] INFO  d.j.m.r.TCPLineReceiver - Time: 2026-04-16T15:26:59.469303Z, Message: $GPRMC,152659.00,A,5311.9142629,N,00831.0824039,E,0.0,,160426,3.7,E,D*1A
2026-04-16 15:26:59.469 [Thread-2    ] INFO  d.j.m.r.TCPLineReceiver - Time: 2026-04-16T15:26:59.469303Z, Message: $GPGGA,152659.00,5311.9142629,N,00831.0824039,E,4,22,0.6,4.1987,M,46.3506,M,1.0,4095*4E
2026-04-16 15:26:59.469 [Thread-2    ] INFO  d.j.m.r.TCPLineReceiver - Time: 2026-04-16T15:26:59.469303Z, Message: $GPHDT,,T*1B
2026-04-16 15:26:59.469 [Thread-2    ] INFO  d.j.m.r.TCPLineReceiver - Time: 2026-04-16T15:26:59.469303Z, Message: $GPGST,152659.00,0.537,0.008,0.005,16.363,0.007,0.006,0.010*66
2026-04-16 15:27:00.051 [Thread-4    ] INFO  d.j.m.r.TCPLineReceiver - Time: 2026-04-16T15:27:00.051174Z, Message: $WIMWV,329.0,R,5.0,M,A*2D
2026-04-16 15:27:00.051 [Thread-4    ] INFO  d.j.m.r.TCPLineReceiver - Time: 2026-04-16T15:27:00.051174Z, Message: $WIMWV,328.9,T,5.0,M,A*23
2026-04-16 15:27:00.051 [Thread-4    ] INFO  d.j.m.r.TCPLineReceiver - Time: 2026-04-16T15:27:00.051679Z, Message: $WIMWV,326.1,R,4.9,M,A*2B
2026-04-16 15:27:00.051 [Thread-4    ] INFO  d.j.m.r.TCPLineReceiver - Time: 2026-04-16T15:27:00.051679Z, Message: $WIMWV,326.1,T,4.9,M,A*2D
2026-04-16 15:27:00.082 [WeatherColle] WARN  d.j.d.w.WeatherParser - Could not transform relative windDirection to true north, because no headingInformation is available
2026-04-16 15:27:00.082 [WeatherColle] WARN  d.j.d.w.WeatherParser - Could not transform relative windDirection to true north, because no headingInformation is available
2026-04-16 15:27:00.082 [WeatherColle] WARN  d.j.d.w.WeatherParser - Could not transform relative windDirection to true north, because no headingInformation is available
2026-04-16 15:27:00.082 [WeatherColle] WARN  d.j.d.w.WeatherParser - Could not transform relative windDirection to true north, because no headingInformation is available
2026-04-16 15:27:00.098 [Thread-3    ] INFO  d.j.m.r.TCPLineReceiver - Time: 2026-04-16T15:27:00.098206Z, Message: !AIVDO,1,1,,,139vb@0P00PVwRHNL<=f4?wl2000,0*76
2026-04-16 15:27:00.098 [Thread-3    ] INFO  d.j.m.r.TCPLineReceiver - Time: 2026-04-16T15:27:00.098206Z, Message: !AIVDM,1,1,,A,139g;o0P00PW6l:NKde@0?wn28Rc,0*40
2026-04-16 15:27:00.492 [Thread-2    ] INFO  d.j.m.r.TCPLineReceiver - Time: 2026-04-16T15:27:00.492908Z, Message: $GPRMC,152700.00,A,5311.9142631,N,00831.0824060,E,0.0,,160426,3.7,E,D*12
2026-04-16 15:27:00.492 [Thread-2    ] INFO  d.j.m.r.TCPLineReceiver - Time: 2026-04-16T15:27:00.492908Z, Message: $GPGGA,152700.00,5311.9142631,N,00831.0824060,E,4,22,0.6,4.1964,M,46.3506,M,1.0,4095*4B
2026-04-16 15:27:00.492 [Thread-2    ] INFO  d.j.m.r.TCPLineReceiver - Time: 2026-04-16T15:27:00.492908Z, Message: $GPHDT,,T*1B
2026-04-16 15:27:00.492 [Thread-2    ] INFO  d.j.m.r.TCPLineReceiver - Time: 2026-04-16T15:27:00.492908Z, Message: $GPGST,152700.00,0.329,0.008,0.005,15.240,0.007,0.006,0.010*61
2026-04-16 15:27:01.037 [Thread-4    ] INFO  d.j.m.r.TCPLineReceiver - Time: 2026-04-16T15:27:01.037113Z, Message: $WIMWV,325.0,R,4.7,M,A*27
2026-04-16 15:27:01.037 [Thread-4    ] INFO  d.j.m.r.TCPLineReceiver - Time: 2026-04-16T15:27:01.037738Z, Message: $WIMWV,325.0,T,4.7,M,A*21
2026-04-16 15:27:01.037 [Thread-4    ] INFO  d.j.m.r.TCPLineReceiver - Time: 2026-04-16T15:27:01.037738Z, Message: $WIMWV,325.6,R,4.4,M,A*22
2026-04-16 15:27:01.037 [Thread-4    ] INFO  d.j.m.r.TCPLineReceiver - Time: 2026-04-16T15:27:01.037738Z, Message: $WIMWV,325.6,T,4.4,M,A*24
2026-04-16 15:27:01.100 [WeatherColle] WARN  d.j.d.w.WeatherParser - Could not transform relative windDirection to true north, because no headingInformation is available
2026-04-16 15:27:01.100 [WeatherColle] WARN  d.j.d.w.WeatherParser - Could not transform relative windDirection to true north, because no headingInformation is available
2026-04-16 15:27:01.100 [WeatherColle] WARN  d.j.d.w.WeatherParser - Could not transform relative windDirection to true north, because no headingInformation is available
2026-04-16 15:27:01.100 [WeatherColle] WARN  d.j.d.w.WeatherParser - Could not transform relative windDirection to true north, because no headingInformation is available
2026-04-16 15:27:01.194 [Thread-3    ] INFO  d.j.m.r.TCPLineReceiver - Time: 2026-04-16T15:27:01.194835Z, Message: !AIVDO,1,1,,,139vb@0P00PVwRHNL<=N4?wn2000,0*5C
2026-04-16 15:27:01.194 [Thread-3    ] INFO  d.j.m.r.TCPLineReceiver - Time: 2026-04-16T15:27:01.194835Z, Message: !AIVDO,1,1,,B,139vb@0P00PVwRHNL<=N4?v02@0:,0*3B
2026-04-16 15:27:01.513 [Thread-2    ] INFO  d.j.m.r.TCPLineReceiver - Time: 2026-04-16T15:27:01.513908Z, Message: $GPRMC,152701.00,A,5311.9142647,N,00831.0824064,E,0.0,,160426,3.7,E,D*16
2026-04-16 15:27:01.513 [Thread-2    ] INFO  d.j.m.r.TCPLineReceiver - Time: 2026-04-16T15:27:01.513908Z, Message: $GPGGA,152701.00,5311.9142647,N,00831.0824064,E,4,22,0.6,4.1991,M,46.3506,M,1.0,4095*45
2026-04-16 15:27:01.513 [Thread-2    ] INFO  d.j.m.r.TCPLineReceiver - Time: 2026-04-16T15:27:01.513908Z, Message: $GPHDT,,T*1B
2026-04-16 15:27:01.513 [Thread-2    ] INFO  d.j.m.r.TCPLineReceiver - Time: 2026-04-16T15:27:01.513908Z, Message: $GPGST,152701.00,0.333,0.008,0.005,15.458,0.007,0.006,0.010*64
2026-04-16 15:27:01.896 [Thread-3    ] INFO  d.j.m.r.TCPLineReceiver - Time: 2026-04-16T15:27:01.896100Z, Message: !AIVDM,1,1,,B,13aHle@P00PWt8LNIMh>4?v02<1@,0*3E
2026-04-16 15:27:01.896 [Thread-3    ] INFO  d.j.m.r.TCPLineReceiver - Time: 2026-04-16T15:27:01.896100Z, Message: !AIVDM,1,1,,A,13:1boRP00PVgd6NMB?N4?v02<0u,0*25
2026-04-16 15:27:01.896 [Thread-3    ] INFO  d.j.m.r.TCPLineReceiver - Time: 2026-04-16T15:27:01.896100Z, Message: !AIVDO,1,1,,,139vb@0P00PVwRHNL<=N4?v02000,0*03
2026-04-16 15:27:02.039 [Thread-4    ] INFO  d.j.m.r.TCPLineReceiver - Time: 2026-04-16T15:27:02.039721Z, Message: $WIMWV,326.1,R,4.3,M,A*21
2026-04-16 15:27:02.039 [Thread-4    ] INFO  d.j.m.r.TCPLineReceiver - Time: 2026-04-16T15:27:02.039721Z, Message: $WIMWV,326.1,T,4.3,M,A*27
2026-04-16 15:27:02.039 [Thread-4    ] INFO  d.j.m.r.TCPLineReceiver - Time: 2026-04-16T15:27:02.039721Z, Message: $WIMWV,327.0,R,4.5,M,A*27
2026-04-16 15:27:02.039 [Thread-4    ] INFO  d.j.m.r.TCPLineReceiver - Time: 2026-04-16T15:27:02.039721Z, Message: $WIMWV,327.0,T,4.5,M,A*21
2026-04-16 15:27:02.055 [WeatherColle] WARN  d.j.d.w.WeatherParser - Could not transform relative windDirection to true north, because no headingInformation is available
2026-04-16 15:27:02.055 [WeatherColle] WARN  d.j.d.w.WeatherParser - Could not transform relative windDirection to true north, because no headingInformation is available
2026-04-16 15:27:02.055 [WeatherColle] WARN  d.j.d.w.WeatherParser - Could not transform relative windDirection to true north, because no headingInformation is available
2026-04-16 15:27:02.055 [WeatherColle] WARN  d.j.d.w.WeatherParser - Could not transform relative windDirection to true north, because no headingInformation is available
2026-04-16 15:27:02.534 [Thread-2    ] INFO  d.j.m.r.TCPLineReceiver - Time: 2026-04-16T15:27:02.534352Z, Message: $GPRMC,152702.00,A,5311.9142646,N,00831.0824079,E,0.0,,160426,3.7,E,D*18
2026-04-16 15:27:02.534 [Thread-2    ] INFO  d.j.m.r.TCPLineReceiver - Time: 2026-04-16T15:27:02.534352Z, Message: $GPGGA,152702.00,5311.9142646,N,00831.0824079,E,4,22,0.6,4.1966,M,46.3506,M,1.0,4095*43
2026-04-16 15:27:02.534 [Thread-2    ] INFO  d.j.m.r.TCPLineReceiver - Time: 2026-04-16T15:27:02.534352Z, Message: $GPHDT,,T*1B
2026-04-16 15:27:02.543 [Thread-2    ] INFO  d.j.m.r.TCPLineReceiver - Time: 2026-04-16T15:27:02.543348Z, Message: $GPGST,152702.00,0.234,0.008,0.005,15.685,0.007,0.006,0.010*63
2026-04-16 15:27:02.901 [Thread-3    ] INFO  d.j.m.r.TCPLineReceiver - Time: 2026-04-16T15:27:02.901370Z, Message: !AIVDO,1,1,,,139vb@0P00PVwRHNL<=N4?v22000,0*01
2026-04-16 15:27:03.027 [Thread-4    ] INFO  d.j.m.r.TCPLineReceiver - Time: 2026-04-16T15:27:03.027913Z, Message: $WIMWV,326.8,R,4.4,M,A*2F
2026-04-16 15:27:03.027 [Thread-4    ] INFO  d.j.m.r.TCPLineReceiver - Time: 2026-04-16T15:27:03.027913Z, Message: $WIMWV,326.8,T,4.4,M,A*29
2026-04-16 15:27:03.027 [Thread-4    ] INFO  d.j.m.r.TCPLineReceiver - Time: 2026-04-16T15:27:03.027913Z, Message: $WIMWV,321.2,R,4.4,M,A*22
2026-04-16 15:27:03.027 [Thread-4    ] INFO  d.j.m.r.TCPLineReceiver - Time: 2026-04-16T15:27:03.027913Z, Message: $WIMWV,321.2,T,4.4,M,A*24
2026-04-16 15:27:03.075 [WeatherColle] WARN  d.j.d.w.WeatherParser - Could not transform relative windDirection to true north, because no headingInformation is available
2026-04-16 15:27:03.075 [WeatherColle] WARN  d.j.d.w.WeatherParser - Could not transform relative windDirection to true north, because no headingInformation is available
2026-04-16 15:27:03.075 [WeatherColle] WARN  d.j.d.w.WeatherParser - Could not transform relative windDirection to true north, because no headingInformation is available
2026-04-16 15:27:03.075 [WeatherColle] WARN  d.j.d.w.WeatherParser - Could not transform relative windDirection to true north, because no headingInformation is available
2026-04-16 15:27:03.562 [Thread-2    ] INFO  d.j.m.r.TCPLineReceiver - Time: 2026-04-16T15:27:03.562753Z, Message: $GPRMC,152703.00,A,5311.9142649,N,00831.0824077,E,0.0,,160426,3.7,E,D*18
2026-04-16 15:27:03.562 [Thread-2    ] INFO  d.j.m.r.TCPLineReceiver - Time: 2026-04-16T15:27:03.562753Z, Message: $GPGGA,152703.00,5311.9142649,N,00831.0824077,E,4,22,0.6,4.1979,M,46.3506,M,1.0,4095*4D
2026-04-16 15:27:03.562 [Thread-2    ] INFO  d.j.m.r.TCPLineReceiver - Time: 2026-04-16T15:27:03.562753Z, Message: $GPHDT,,T*1B
2026-04-16 15:27:03.562 [Thread-2    ] INFO  d.j.m.r.TCPLineReceiver - Time: 2026-04-16T15:27:03.562753Z, Message: $GPGST,152703.00,0.219,0.008,0.005,14.643,0.007,0.006,0.010*66
2026-04-16 15:27:03.886 [Thread-3    ] INFO  d.j.m.r.TCPLineReceiver - Time: 2026-04-16T15:27:03.886082Z, Message: !AIVDO,1,1,,,139vb@0P00PVwRHNL<=N4?v42000,0*07
2026-04-16 15:27:04.014 [Thread-4    ] INFO  d.j.m.r.TCPLineReceiver - Time: 2026-04-16T15:27:04.014308Z, Message: $WIMWV,321.5,R,4.8,M,A*29
2026-04-16 15:27:04.014 [Thread-4    ] INFO  d.j.m.r.TCPLineReceiver - Time: 2026-04-16T15:27:04.014308Z, Message: $WIMWV,321.5,T,4.8,M,A*2F
2026-04-16 15:27:04.014 [Thread-4    ] INFO  d.j.m.r.TCPLineReceiver - Time: 2026-04-16T15:27:04.014308Z, Message: $WIMWV,321.4,R,4.5,M,A*25
2026-04-16 15:27:04.014 [Thread-4    ] INFO  d.j.m.r.TCPLineReceiver - Time: 2026-04-16T15:27:04.014308Z, Message: $WIMWV,321.4,T,4.5,M,A*23
2026-04-16 15:27:04.030 [WeatherColle] WARN  d.j.d.w.WeatherParser - Could not transform relative windDirection to true north, because no headingInformation is available
2026-04-16 15:27:04.031 [WeatherColle] WARN  d.j.d.w.WeatherParser - Could not transform relative windDirection to true north, because no headingInformation is available
2026-04-16 15:27:04.031 [WeatherColle] WARN  d.j.d.w.WeatherParser - Could not transform relative windDirection to true north, because no headingInformation is available
2026-04-16 15:27:04.031 [WeatherColle] WARN  d.j.d.w.WeatherParser - Could not transform relative windDirection to true north, because no headingInformation is available
2026-04-16 15:27:04.588 [Thread-2    ] INFO  d.j.m.r.TCPLineReceiver - Time: 2026-04-16T15:27:04.588054Z, Message: $GPRMC,152704.00,A,5311.9142652,N,00831.0824066,E,0.0,,160426,3.7,E,D*15
2026-04-16 15:27:04.588 [Thread-2    ] INFO  d.j.m.r.TCPLineReceiver - Time: 2026-04-16T15:27:04.588054Z, Message: $GPGGA,152704.00,5311.9142652,N,00831.0824066,E,4,22,0.6,4.2009,M,46.3506,M,1.0,4095*4D
2026-04-16 15:27:04.588 [Thread-2    ] INFO  d.j.m.r.TCPLineReceiver - Time: 2026-04-16T15:27:04.588054Z, Message: $GPHDT,,T*1B
2026-04-16 15:27:04.588 [Thread-2    ] INFO  d.j.m.r.TCPLineReceiver - Time: 2026-04-16T15:27:04.588054Z, Message: $GPGST,152704.00,0.253,0.008,0.005,14.686,0.007,0.005,0.010*65
2026-04-16 15:27:05.016 [Thread-4    ] INFO  d.j.m.r.TCPLineReceiver - Time: 2026-04-16T15:27:05.016653Z, Message: $WIMWV,320.4,R,3.9,M,A*2F
2026-04-16 15:27:05.016 [Thread-4    ] INFO  d.j.m.r.TCPLineReceiver - Time: 2026-04-16T15:27:05.016653Z, Message: $WIMWV,320.4,T,3.8,M,A*28
2026-04-16 15:27:05.016 [Thread-4    ] INFO  d.j.m.r.TCPLineReceiver - Time: 2026-04-16T15:27:05.016653Z, Message: $WIMWV,325.2,R,3.7,M,A*22
2026-04-16 15:27:05.016 [Thread-4    ] INFO  d.j.m.r.TCPLineReceiver - Time: 2026-04-16T15:27:05.016653Z, Message: $WIMWV,325.2,T,3.7,M,A*24
2026-04-16 15:27:05.048 [WeatherColle] WARN  d.j.d.w.WeatherParser - Could not transform relative windDirection to true north, because no headingInformation is available
2026-04-16 15:27:05.048 [WeatherColle] WARN  d.j.d.w.WeatherParser - Could not transform relative windDirection to true north, because no headingInformation is available
2026-04-16 15:27:05.048 [WeatherColle] WARN  d.j.d.w.WeatherParser - Could not transform relative windDirection to true north, because no headingInformation is available
2026-04-16 15:27:05.048 [WeatherColle] WARN  d.j.d.w.WeatherParser - Could not transform relative windDirection to true north, because no headingInformation is available
2026-04-16 15:27:05.161 [Thread-3    ] INFO  d.j.m.r.TCPLineReceiver - Time: 2026-04-16T15:27:05.161680Z, Message: !AIVDM,1,1,,A,14Rfh2001q0VnFPNNsHPCP>40p26,0*25
2026-04-16 15:27:05.161 [Thread-3    ] INFO  d.j.m.r.TCPLineReceiver - Time: 2026-04-16T15:27:05.161680Z, Message: !AIVDO,1,1,,,139vb@0P00PVwRHNL<=N4?v62000,0*05
2026-04-16 15:27:05.161 [Thread-3    ] INFO  d.j.m.r.TCPLineReceiver - Time: 2026-04-16T15:27:05.161680Z, Message: !AIVDM,1,1,,B,139K8WP0000WtlrNI3Q1sAR200T;,0*3E
2026-04-16 15:27:05.610 [Thread-2    ] INFO  d.j.m.r.TCPLineReceiver - Time: 2026-04-16T15:27:05.610073Z, Message: $GPRMC,152705.00,A,5311.9142652,N,00831.0824074,E,0.0,,160426,3.7,E,D*17
2026-04-16 15:27:05.610 [Thread-2    ] INFO  d.j.m.r.TCPLineReceiver - Time: 2026-04-16T15:27:05.610073Z, Message: $GPGGA,152705.00,5311.9142652,N,00831.0824074,E,4,22,0.6,4.2000,M,46.3506,M,1.0,4095*46
2026-04-16 15:27:05.610 [Thread-2    ] INFO  d.j.m.r.TCPLineReceiver - Time: 2026-04-16T15:27:05.610073Z, Message: $GPHDT,,T*1B
2026-04-16 15:27:05.610 [Thread-2    ] INFO  d.j.m.r.TCPLineReceiver - Time: 2026-04-16T15:27:05.610073Z, Message: $GPGST,152705.00,0.288,0.008,0.005,13.838,0.008,0.005,0.010*61
2026-04-16 15:27:06.007 [Thread-4    ] INFO  d.j.m.r.TCPLineReceiver - Time: 2026-04-16T15:27:06.007137Z, Message: $WIMWV,332.2,R,4.1,M,A*25
2026-04-16 15:27:06.007 [Thread-4    ] INFO  d.j.m.r.TCPLineReceiver - Time: 2026-04-16T15:27:06.007137Z, Message: $WIMWV,332.2,T,4.1,M,A*23
2026-04-16 15:27:06.007 [Thread-4    ] INFO  d.j.m.r.TCPLineReceiver - Time: 2026-04-16T15:27:06.007794Z, Message: $WIMWV,336.3,R,3.8,M,A*2E
