2026-04-16 15:34:25.649 [main        ] INFO  d.j.Main - Starting Main v1.0-SNAPSHOT using Java 17.0.17 with PID 14752 (C:\Users\seefahrt\Documents\DataCollector\EcoCrossingDataCollector.jar started by HUNTESOC$ in C:\Users\seefahrt\Documents\DataCollector)
2026-04-16 15:34:25.658 [main        ] INFO  d.j.Main - No active profile set, falling back to 1 default profile: "default"
2026-04-16 15:34:26.648 [main        ] INFO  o.s.b.w.e.t.TomcatWebServer - Tomcat initialized with port 8090 (http)
2026-04-16 15:34:26.658 [main        ] INFO  o.a.c.h.Http11NioProtocol - Initializing ProtocolHandler ["http-nio-8090"]
2026-04-16 15:34:26.658 [main        ] INFO  o.a.c.c.StandardService - Starting service [Tomcat]
2026-04-16 15:34:26.658 [main        ] INFO  o.a.c.c.StandardEngine - Starting Servlet engine: [Apache Tomcat/10.1.53]
2026-04-16 15:34:26.695 [main        ] INFO  o.a.c.c.C.[.[.[/] - Initializing Spring embedded WebApplicationContext
2026-04-16 15:34:26.695 [main        ] INFO  o.s.b.w.s.c.ServletWebServerApplicationContext - Root WebApplicationContext: initialization completed in 972 ms
2026-04-16 15:34:26.793 [main        ] INFO  o.s.b.a.w.s.WelcomePageHandlerMapping - Adding welcome page template: index
2026-04-16 15:34:27.092 [main        ] INFO  o.a.c.h.Http11NioProtocol - Starting ProtocolHandler ["http-nio-8090"]
2026-04-16 15:34:27.113 [main        ] INFO  o.s.b.w.e.t.TomcatWebServer - Tomcat started on port 8090 (http) with context path '/'
2026-04-16 15:34:27.123 [main        ] INFO  d.j.Main - Started Main in 1.941 seconds (process running for 2.168)
2026-04-16 15:34:27.133 [main        ] INFO  d.j.Main - Version: 1.0-SNAPSHOT (Build: 2026-04-16 15:30:35+00:00)
2026-04-16 15:34:27.133 [main        ] INFO  d.j.u.Properties - Try to find file: application.properties
2026-04-16 15:34:27.139 [main        ] INFO  d.j.u.Properties - Found 38 properties
2026-04-16 15:34:27.139 [main        ] INFO  d.j.u.Properties -    weather.input=tcp
2026-04-16 15:34:27.139 [main        ] INFO  d.j.u.Properties -    flow.avgtime.window=900000
2026-04-16 15:34:27.139 [main        ] INFO  d.j.u.Properties -    flow.tcp.port=5005
2026-04-16 15:34:27.139 [main        ] INFO  d.j.u.Properties -    consumption.udp.port=8889
2026-04-16 15:34:27.139 [main        ] INFO  d.j.u.Properties -    shaft.numberofscrews=2
2026-04-16 15:34:27.139 [main        ] INFO  d.j.u.Properties -    weather.tcp.hostname=192.168.1.4
2026-04-16 15:34:27.139 [main        ] INFO  d.j.u.Properties -    persistence.output.separator=,
2026-04-16 15:34:27.139 [main        ] INFO  d.j.u.Properties -    ais.udp.port=10200
2026-04-16 15:34:27.139 [main        ] INFO  d.j.u.Properties -    gps.tcp.port=28785
2026-04-16 15:34:27.139 [main        ] INFO  d.j.u.Properties -    ais.tcp.hostname=192.168.1.4
2026-04-16 15:34:27.139 [main        ] INFO  d.j.u.Properties -    flow.input=none
2026-04-16 15:34:27.139 [main        ] INFO  d.j.u.Properties -    shaft.udp.port=8890
2026-04-16 15:34:27.139 [main        ] INFO  d.j.u.Properties -    shaft.tcp.hostname=localhost
2026-04-16 15:34:27.139 [main        ] INFO  d.j.u.Properties -    shaft.input=udp
2026-04-16 15:34:27.139 [main        ] INFO  d.j.u.Properties -    gps.udp.port=10400
2026-04-16 15:34:27.139 [main        ] INFO  d.j.u.Properties -    ais.input=tcp
2026-04-16 15:34:27.139 [main        ] INFO  d.j.u.Properties -    server.port=8090
2026-04-16 15:34:27.144 [main        ] INFO  d.j.u.Properties -    time.statistics=60000
2026-04-16 15:34:27.144 [main        ] INFO  d.j.u.Properties -    flow.tcp.hostname=192.168.1.6
2026-04-16 15:34:27.144 [main        ] INFO  d.j.u.Properties -    consumption.tcp.port=8889
2026-04-16 15:34:27.144 [main        ] INFO  d.j.u.Properties -    persistence.output.duration=10000
2026-04-16 15:34:27.144 [main        ] INFO  d.j.u.Properties -    flow.avgtime.publish=15000
2026-04-16 15:34:27.144 [main        ] INFO  d.j.u.Properties -    ais.tcp.port=10200
2026-04-16 15:34:27.144 [main        ] INFO  d.j.u.Properties -    wind.avgtime.publish=15000
2026-04-16 15:34:27.144 [main        ] INFO  d.j.u.Properties -    weather.udp.port=10600
2026-04-16 15:34:27.144 [main        ] INFO  d.j.u.Properties -    shaft.tcp.port=8890
2026-04-16 15:34:27.144 [main        ] INFO  d.j.u.Properties -    publisher.port=8100
2026-04-16 15:34:27.144 [main        ] INFO  d.j.u.Properties -    persistence.output.path=persistence
2026-04-16 15:34:27.144 [main        ] INFO  d.j.u.Properties -    ferrymode.avgtime.publish=15000
2026-04-16 15:34:27.144 [main        ] INFO  d.j.u.Properties -    weather.tcp.port=10600
2026-04-16 15:34:27.144 [main        ] INFO  d.j.u.Properties -    persistence.output.quoted=true
2026-04-16 15:34:27.144 [main        ] INFO  d.j.u.Properties -    gps.input=tcp
2026-04-16 15:34:27.144 [main        ] INFO  d.j.u.Properties -    ferrymode.avgtime.window=210000
2026-04-16 15:34:27.144 [main        ] INFO  d.j.u.Properties -    consumption.tcp.hostname=localhost
2026-04-16 15:34:27.144 [main        ] INFO  d.j.u.Properties -    consumption.input=udp
2026-04-16 15:34:27.144 [main        ] INFO  d.j.u.Properties -    flow.udp.port=5005
2026-04-16 15:34:27.144 [main        ] INFO  d.j.u.Properties -    wind.avgtime.window=900000
2026-04-16 15:34:27.144 [main        ] INFO  d.j.u.Properties -    gps.tcp.hostname=192.168.1.3
2026-04-16 15:34:27.150 [Thread-2    ] INFO  d.j.m.r.TCPLineReceiver - Try to connect to 192.168.1.3:28785
2026-04-16 15:34:27.150 [Thread-1    ] INFO  d.j.d.g.GPSCollector - GPSCollector started
2026-04-16 15:34:27.150 [Thread-3    ] INFO  d.j.m.r.TCPLineReceiver - Try to connect to 192.168.1.4:10200
2026-04-16 15:34:27.154 [Thread-1    ] INFO  d.j.d.a.AISCollector - AISCollector started
2026-04-16 15:34:27.157 [Thread-1    ] INFO  d.j.d.w.WeatherCollector - WeatherCollector started
2026-04-16 15:34:27.156 [Thread-4    ] INFO  d.j.m.r.TCPLineReceiver - Try to connect to 192.168.1.4:10600
2026-04-16 15:34:27.158 [Publisher   ] INFO  d.j.p.Publisher - Running Publisher
2026-04-16 15:34:27.158 [Publisher   ] INFO  d.j.p.Publisher - Wait on new connection on port: 8100
2026-04-16 15:34:27.158 [Thread-1    ] INFO  d.j.d.c.ConsumptionCollector - ConsumptionCollector started
2026-04-16 15:34:27.158 [Thread-1    ] INFO  d.j.d.f.FlowCollector - Flow inputType is none.
2026-04-16 15:34:27.164 [Thread-1    ] INFO  d.j.d.s.ShaftCollector - ShaftCollector started
2026-04-16 15:34:27.478 [Thread-2    ] INFO  d.j.m.r.TCPLineReceiver - Time: 2026-04-16T15:34:27.478259500Z, Message: $GPRMC,153427.00,A,5311.7780296,N,00830.9141726,E,0.2,281.8,160426,3.7,E,D*32
2026-04-16 15:34:27.478 [Thread-2    ] INFO  d.j.m.r.TCPLineReceiver - Time: 2026-04-16T15:34:27.478259500Z, Message: $GPGGA,153427.00,5311.7780296,N,00830.9141726,E,4,21,0.7,4.0559,M,46.3527,M,1.0,4095*46
2026-04-16 15:34:27.478 [Thread-2    ] INFO  d.j.m.r.TCPLineReceiver - Time: 2026-04-16T15:34:27.478259500Z, Message: $GPHDT,,T*1B
2026-04-16 15:34:27.478 [Thread-2    ] INFO  d.j.m.r.TCPLineReceiver - Time: 2026-04-16T15:34:27.478259500Z, Message: $GPGST,153427.00,0.343,0.009,0.005,12.277,0.009,0.005,0.010*65
2026-04-16 15:34:28.326 [Thread-4    ] INFO  d.j.m.r.TCPLineReceiver - Time: 2026-04-16T15:34:28.326783900Z, Message: $WIMWV,324.3,R,1.8,M,A*2F
2026-04-16 15:34:28.326 [Thread-4    ] INFO  d.j.m.r.TCPLineReceiver - Time: 2026-04-16T15:34:28.326783900Z, Message: $WIMWV,321.8,T,1.6,M,A*29
2026-04-16 15:34:28.326 [Thread-4    ] INFO  d.j.m.r.TCPLineReceiver - Time: 2026-04-16T15:34:28.326783900Z, Message: $WIMWV,320.9,R,1.8,M,A*21
2026-04-16 15:34:28.326 [Thread-4    ] INFO  d.j.m.r.TCPLineReceiver - Time: 2026-04-16T15:34:28.326783900Z, Message: $WIMWV,318.3,T,1.7,M,A*29
2026-04-16 15:34:28.358 [WeatherColle] WARN  d.j.d.w.WeatherParser - Could not transform relative windDirection to true north, because no headingInformation is available
2026-04-16 15:34:28.358 [WeatherColle] WARN  d.j.d.w.WeatherParser - Could not transform relative windDirection to true north, because no headingInformation is available
2026-04-16 15:34:28.358 [WeatherColle] WARN  d.j.d.w.WeatherParser - Could not transform relative windDirection to true north, because no headingInformation is available
2026-04-16 15:34:28.358 [WeatherColle] WARN  d.j.d.w.WeatherParser - Could not transform relative windDirection to true north, because no headingInformation is available
2026-04-16 15:34:28.503 [Thread-2    ] INFO  d.j.m.r.TCPLineReceiver - Time: 2026-04-16T15:34:28.503101200Z, Message: $GPRMC,153428.00,A,5311.7780433,N,00830.9140445,E,0.3,280.0,160426,3.7,E,D*3B
2026-04-16 15:34:28.503 [Thread-2    ] INFO  d.j.m.r.TCPLineReceiver - Time: 2026-04-16T15:34:28.503101200Z, Message: $GPGGA,153428.00,5311.7780433,N,00830.9140445,E,4,21,0.7,4.0537,M,46.3527,M,1.0,4095*4F
2026-04-16 15:34:28.503 [Thread-2    ] INFO  d.j.m.r.TCPLineReceiver - Time: 2026-04-16T15:34:28.503101200Z, Message: $GPHDT,,T*1B
2026-04-16 15:34:28.503 [Thread-2    ] INFO  d.j.m.r.TCPLineReceiver - Time: 2026-04-16T15:34:28.503101200Z, Message: $GPGST,153428.00,0.298,0.009,0.005,12.248,0.009,0.005,0.010*61
2026-04-16 15:34:29.318 [Thread-4    ] INFO  d.j.m.r.TCPLineReceiver - Time: 2026-04-16T15:34:29.318007200Z, Message: $WIMWV,321.9,R,1.7,M,A*2F
2026-04-16 15:34:29.318 [Thread-4    ] INFO  d.j.m.r.TCPLineReceiver - Time: 2026-04-16T15:34:29.318007200Z, Message: $WIMWV,319.1,T,1.6,M,A*2B
2026-04-16 15:34:29.318 [Thread-4    ] INFO  d.j.m.r.TCPLineReceiver - Time: 2026-04-16T15:34:29.318007200Z, Message: $WIMWV,332.7,R,1.4,M,A*20
2026-04-16 15:34:29.318 [Thread-4    ] INFO  d.j.m.r.TCPLineReceiver - Time: 2026-04-16T15:34:29.318007200Z, Message: $WIMWV,329.8,T,1.3,M,A*24
2026-04-16 15:34:29.382 [WeatherColle] WARN  d.j.d.w.WeatherParser - Could not transform relative windDirection to true north, because no headingInformation is available
2026-04-16 15:34:29.382 [WeatherColle] WARN  d.j.d.w.WeatherParser - Could not transform relative windDirection to true north, because no headingInformation is available
2026-04-16 15:34:29.382 [WeatherColle] WARN  d.j.d.w.WeatherParser - Could not transform relative windDirection to true north, because no headingInformation is available
2026-04-16 15:34:29.382 [WeatherColle] WARN  d.j.d.w.WeatherParser - Could not transform relative windDirection to true north, because no headingInformation is available
2026-04-16 15:34:29.523 [Thread-2    ] INFO  d.j.m.r.TCPLineReceiver - Time: 2026-04-16T15:34:29.523824500Z, Message: $GPRMC,153429.00,A,5311.7780545,N,00830.9139112,E,0.3,277.9,160426,3.7,E,D*32
2026-04-16 15:34:29.523 [Thread-2    ] INFO  d.j.m.r.TCPLineReceiver - Time: 2026-04-16T15:34:29.523824500Z, Message: $GPGGA,153429.00,5311.7780545,N,00830.9139112,E,4,21,0.7,4.0472,M,46.3527,M,1.0,4095*47
2026-04-16 15:34:29.523 [Thread-2    ] INFO  d.j.m.r.TCPLineReceiver - Time: 2026-04-16T15:34:29.523824500Z, Message: $GPHDT,,T*1B
2026-04-16 15:34:29.523 [Thread-2    ] INFO  d.j.m.r.TCPLineReceiver - Time: 2026-04-16T15:34:29.523824500Z, Message: $GPGST,153429.00,0.338,0.009,0.005,12.157,0.009,0.005,0.010*66
2026-04-16 15:34:29.934 [Thread-3    ] INFO  d.j.m.r.TCPLineReceiver - Time: 2026-04-16T15:34:29.934691700Z, Message: !AIVDO,1,1,,,139vb@0P03PVvefNL6kv4?vj2000,0*26
2026-04-16 15:34:29.934 [Thread-3    ] INFO  d.j.m.r.TCPLineReceiver - Time: 2026-04-16T15:34:29.934691700Z, Message: !AIVDM,1,1,,B,139LOfPP00PVwRjNL<6f4?vl20SQ,0*4D
2026-04-16 15:34:29.934 [Thread-3    ] INFO  d.j.m.r.TCPLineReceiver - Time: 2026-04-16T15:34:29.934691700Z, Message: !AIVDM,1,1,,A,13`hG?@P00PWt:lNIN4f4?vl2@?D,0*62
2026-04-16 15:34:29.934 [Thread-3    ] INFO  d.j.m.r.TCPLineReceiver - Time: 2026-04-16T15:34:29.934691700Z, Message: !AIVDM,1,1,,A,139idk0000PVu;0NLNcGgm:l25r8,0*7A
2026-04-16 15:34:29.934 [Thread-3    ] INFO  d.j.m.r.TCPLineReceiver - Time: 2026-04-16T15:34:29.934691700Z, Message: !AIVDM,1,1,,B,139f0<P019PVt9rNLJ1UilTl25r8,0*79
2026-04-16 15:34:29.934 [Thread-3    ] INFO  d.j.m.r.TCPLineReceiver - Time: 2026-04-16T15:34:29.934691700Z, Message: !AIVDO,1,1,,,139vb@0P02PVve`NL6kv4?vl2000,0*27
2026-04-16 15:34:29.934 [Thread-3    ] INFO  d.j.m.r.TCPLineReceiver - Time: 2026-04-16T15:34:29.934691700Z, Message: !AIVDM,1,1,,B,13aIAuPP00PVgddNMCGP0?vn2@@4,0*1C
2026-04-16 15:34:29.934 [Thread-3    ] INFO  d.j.m.r.TCPLineReceiver - Time: 2026-04-16T15:34:29.934691700Z, Message: !AIVDM,1,1,,A,139fviPP0OPWMK0NK54kS?vn28@9,0*42
2026-04-16 15:34:29.934 [Thread-3    ] INFO  d.j.m.r.TCPLineReceiver - Time: 2026-04-16T15:34:29.934691700Z, Message: !AIVDM,1,1,,B,139g;o0P00PW6l8NKdjP0?vn2D0H,0*6A
2026-04-16 15:34:29.934 [Thread-3    ] INFO  d.j.m.r.TCPLineReceiver - Time: 2026-04-16T15:34:29.934691700Z, Message: !AIVDO,1,1,,,139vb@0P03PVve`NL6kv4?vn2000,0*24
2026-04-16 15:34:29.934 [Thread-3    ] INFO  d.j.m.r.TCPLineReceiver - Time: 2026-04-16T15:34:29.934691700Z, Message: !AIVDM,1,1,,A,13aL<40P00PVqWnNQ@6v4?vpR8@U,0*42
2026-04-16 15:34:29.934 [Thread-3    ] INFO  d.j.m.r.TCPLineReceiver - Time: 2026-04-16T15:34:29.934691700Z, Message: !AIVDM,1,1,,A,139EPnPP000`3;tNHpqT3?vnP<1T,0*04
2026-04-16 15:34:29.934 [Thread-3    ] INFO  d.j.m.r.TCPLineReceiver - Time: 2026-04-16T15:34:29.934691700Z, Message: !AIVDO,1,1,,,139vb@0P03PVveVNL6lN4?vp2000,0*33
2026-04-16 15:34:29.934 [Thread-3    ] INFO  d.j.m.r.TCPLineReceiver - Time: 2026-04-16T15:34:29.934691700Z, Message: !AIVDM,1,1,,B,14hS;t5000PWI=@NK9=clHjn0<1<,0*21
2026-04-16 15:34:30.315 [Thread-4    ] INFO  d.j.m.r.TCPLineReceiver - Time: 2026-04-16T15:34:30.315851100Z, Message: $WIMWV,333.0,R,1.4,M,A*26
2026-04-16 15:34:30.315 [Thread-4    ] INFO  d.j.m.r.TCPLineReceiver - Time: 2026-04-16T15:34:30.315851100Z, Message: $WIMWV,330.1,T,1.3,M,A*25
2026-04-16 15:34:30.315 [Thread-4    ] INFO  d.j.m.r.TCPLineReceiver - Time: 2026-04-16T15:34:30.315851100Z, Message: $WIMWV,316.1,R,1.9,M,A*2D
2026-04-16 15:34:30.315 [Thread-4    ] INFO  d.j.m.r.TCPLineReceiver - Time: 2026-04-16T15:34:30.315851100Z, Message: $WIMWV,312.8,T,1.7,M,A*28
2026-04-16 15:34:30.331 [WeatherColle] WARN  d.j.d.w.WeatherParser - Could not transform relative windDirection to true north, because no headingInformation is available
2026-04-16 15:34:30.331 [WeatherColle] WARN  d.j.d.w.WeatherParser - Could not transform relative windDirection to true north, because no headingInformation is available
2026-04-16 15:34:30.331 [WeatherColle] WARN  d.j.d.w.WeatherParser - Could not transform relative windDirection to true north, because no headingInformation is available
2026-04-16 15:34:30.331 [WeatherColle] WARN  d.j.d.w.WeatherParser - Could not transform relative windDirection to true north, because no headingInformation is available
2026-04-16 15:34:30.546 [Thread-2    ] INFO  d.j.m.r.TCPLineReceiver - Time: 2026-04-16T15:34:30.546050500Z, Message: $GPRMC,153430.00,A,5311.7780594,N,00830.9137742,E,0.3,274.8,160426,3.7,E,D*39
2026-04-16 15:34:30.546 [Thread-2    ] INFO  d.j.m.r.TCPLineReceiver - Time: 2026-04-16T15:34:30.546050500Z, Message: $GPGGA,153430.00,5311.7780594,N,00830.9137742,E,4,21,0.7,4.0528,M,46.3527,M,1.0,4095*40
2026-04-16 15:34:30.546 [Thread-2    ] INFO  d.j.m.r.TCPLineReceiver - Time: 2026-04-16T15:34:30.546050500Z, Message: $GPHDT,,T*1B
2026-04-16 15:34:30.546 [Thread-2    ] INFO  d.j.m.r.TCPLineReceiver - Time: 2026-04-16T15:34:30.546050500Z, Message: $GPGST,153430.00,0.245,0.009,0.005,12.823,0.009,0.005,0.010*6F
2026-04-16 15:34:31.031 [Thread-3    ] INFO  d.j.m.r.TCPLineReceiver - Time: 2026-04-16T15:34:31.031740900Z, Message: !AIVDM,1,1,,B,13:1boRP00PVgdHNMBAf4?vr2<0s,0*4A
2026-04-16 15:34:31.032 [Thread-3    ] INFO  d.j.m.r.TCPLineReceiver - Time: 2026-04-16T15:34:31.032360100Z, Message: !AIVDM,1,1,,A,13aHle@P00PWt8:NIMjN4?vr25r8,0*49
2026-04-16 15:34:31.032 [Thread-3    ] INFO  d.j.m.r.TCPLineReceiver - Time: 2026-04-16T15:34:31.032360100Z, Message: !AIVDO,1,1,,,139vb@0P03PVveRNL6lN4?vr2000,0*35
2026-04-16 15:34:31.032 [Thread-3    ] INFO  d.j.m.r.TCPLineReceiver - Time: 2026-04-16T15:34:31.032360100Z, Message: !AIVDM,1,1,,B,13q5JI0P00PVdrHNLtHf4?vr28Aa,0*25
2026-04-16 15:34:31.319 [Thread-4    ] INFO  d.j.m.r.TCPLineReceiver - Time: 2026-04-16T15:34:31.319225100Z, Message: $WIMWV,304.5,R,1.9,M,A*2A
2026-04-16 15:34:31.319 [Thread-4    ] INFO  d.j.m.r.TCPLineReceiver - Time: 2026-04-16T15:34:31.319968200Z, Message: $WIMWV,300.7,T,1.8,M,A*2B
2026-04-16 15:34:31.319 [Thread-4    ] INFO  d.j.m.r.TCPLineReceiver - Time: 2026-04-16T15:34:31.319968200Z, Message: $WIMWV,285.1,R,1.9,M,A*26
2026-04-16 15:34:31.319 [Thread-4    ] INFO  d.j.m.r.TCPLineReceiver - Time: 2026-04-16T15:34:31.319968200Z, Message: $WIMWV,281.0,T,1.8,M,A*24
2026-04-16 15:34:31.350 [WeatherColle] WARN  d.j.d.w.WeatherParser - Could not transform relative windDirection to true north, because no headingInformation is available
2026-04-16 15:34:31.351 [WeatherColle] WARN  d.j.d.w.WeatherParser - Could not transform relative windDirection to true north, because no headingInformation is available
2026-04-16 15:34:31.351 [WeatherColle] WARN  d.j.d.w.WeatherParser - Could not transform relative windDirection to true north, because no headingInformation is available
2026-04-16 15:34:31.351 [WeatherColle] WARN  d.j.d.w.WeatherParser - Could not transform relative windDirection to true north, because no headingInformation is available
2026-04-16 15:34:31.574 [Thread-2    ] INFO  d.j.m.r.TCPLineReceiver - Time: 2026-04-16T15:34:31.574780Z, Message: $GPRMC,153431.00,A,5311.7780665,N,00830.9136685,E,0.2,273.5,160426,3.7,E,D*35
2026-04-16 15:34:31.574 [Thread-2    ] INFO  d.j.m.r.TCPLineReceiver - Time: 2026-04-16T15:34:31.574780Z, Message: $GPGGA,153431.00,5311.7780665,N,00830.9136685,E,4,21,0.7,4.0516,M,46.3527,M,1.0,4095*4A
2026-04-16 15:34:31.574 [Thread-2    ] INFO  d.j.m.r.TCPLineReceiver - Time: 2026-04-16T15:34:31.574780Z, Message: $GPHDT,,T*1B
2026-04-16 15:34:31.574 [Thread-2    ] INFO  d.j.m.r.TCPLineReceiver - Time: 2026-04-16T15:34:31.574780Z, Message: $GPGST,153431.00,0.257,0.009,0.005,12.901,0.008,0.005,0.010*6D
2026-04-16 15:34:32.303 [Thread-4    ] INFO  d.j.m.r.TCPLineReceiver - Time: 2026-04-16T15:34:32.303748200Z, Message: $WIMWV,281.7,R,1.6,M,A*2B
2026-04-16 15:34:32.303 [Thread-4    ] INFO  d.j.m.r.TCPLineReceiver - Time: 2026-04-16T15:34:32.303748200Z, Message: $WIMWV,277.0,T,1.6,M,A*23
2026-04-16 15:34:32.303 [Thread-4    ] INFO  d.j.m.r.TCPLineReceiver - Time: 2026-04-16T15:34:32.303748200Z, Message: $WIMWV,270.4,R,1.3,M,A*23
2026-04-16 15:34:32.303 [Thread-4    ] INFO  d.j.m.r.TCPLineReceiver - Time: 2026-04-16T15:34:32.303748200Z, Message: $WIMWV,265.3,T,1.3,M,A*26
2026-04-16 15:34:32.367 [WeatherColle] WARN  d.j.d.w.WeatherParser - Could not transform relative windDirection to true north, because no headingInformation is available
2026-04-16 15:34:32.367 [WeatherColle] WARN  d.j.d.w.WeatherParser - Could not transform relative windDirection to true north, because no headingInformation is available
2026-04-16 15:34:32.367 [WeatherColle] WARN  d.j.d.w.WeatherParser - Could not transform relative windDirection to true north, because no headingInformation is available
2026-04-16 15:34:32.367 [WeatherColle] WARN  d.j.d.w.WeatherParser - Could not transform relative windDirection to true north, because no headingInformation is available
2026-04-16 15:34:32.591 [Thread-2    ] INFO  d.j.m.r.TCPLineReceiver - Time: 2026-04-16T15:34:32.591886900Z, Message: $GPRMC,153432.00,A,5311.7780682,N,00830.9136486,E,0.0,,160426,3.7,E,D*11
2026-04-16 15:34:32.591 [Thread-2    ] INFO  d.j.m.r.TCPLineReceiver - Time: 2026-04-16T15:34:32.591886900Z, Message: $GPGGA,153432.00,5311.7780682,N,00830.9136486,E,4,21,0.7,4.0636,M,46.3527,M,1.0,4095*40
2026-04-16 15:34:32.591 [Thread-2    ] INFO  d.j.m.r.TCPLineReceiver - Time: 2026-04-16T15:34:32.591886900Z, Message: $GPHDT,,T*1B
2026-04-16 15:34:32.591 [Thread-2    ] INFO  d.j.m.r.TCPLineReceiver - Time: 2026-04-16T15:34:32.591886900Z, Message: $GPGST,153432.00,0.255,0.009,0.005,10.969,0.009,0.005,0.011*60
2026-04-16 15:34:33.165 [Thread-3    ] INFO  d.j.m.r.TCPLineReceiver - Time: 2026-04-16T15:34:33.165140500Z, Message: !AIVDO,1,1,,A,139vb@0P03PVvePNL6lN4?vt2HAr,0*3B
2026-04-16 15:34:33.165 [Thread-3    ] INFO  d.j.m.r.TCPLineReceiver - Time: 2026-04-16T15:34:33.165140500Z, Message: !AIVDO,1,1,,,139vb@0P03PVvePNL6lN4?vt2000,0*31
2026-04-16 15:34:33.165 [Thread-3    ] INFO  d.j.m.r.TCPLineReceiver - Time: 2026-04-16T15:34:33.165140500Z, Message: !AIVDM,1,1,,A,13KvSF00020WrCnNIP6:j0vv05r8,0*78
2026-04-16 15:34:33.165 [Thread-3    ] INFO  d.j.m.r.TCPLineReceiver - Time: 2026-04-16T15:34:33.165140500Z, Message: !AIVDM,1,1,,A,13?tFs0P00PVqRJNQ?<AE?vv2D0e,0*51
2026-04-16 15:34:33.165 [Thread-3    ] INFO  d.j.m.r.TCPLineReceiver - Time: 2026-04-16T15:34:33.165140500Z, Message: !AIVDO,1,1,,,139vb@0P02PVveLNL6lN4?vv2000,0*2E
2026-04-16 15:34:33.165 [Thread-3    ] INFO  d.j.m.r.TCPLineReceiver - Time: 2026-04-16T15:34:33.165140500Z, Message: !AIVDM,1,1,,B,33q5S`@P180Weu@NIMOsHwvvP031,0*57
2026-04-16 15:34:33.306 [Thread-4    ] INFO  d.j.m.r.TCPLineReceiver - Time: 2026-04-16T15:34:33.306997300Z, Message: $WIMWV,266.3,R,1.5,M,A*25
2026-04-16 15:34:33.306 [Thread-4    ] INFO  d.j.m.r.TCPLineReceiver - Time: 2026-04-16T15:34:33.306997300Z, Message: $WIMWV,262.1,T,1.6,M,A*26
2026-04-16 15:34:33.306 [Thread-4    ] INFO  d.j.m.r.TCPLineReceiver - Time: 2026-04-16T15:34:33.306997300Z, Message: $WIMWV,264.2,R,1.4,M,A*27
2026-04-16 15:34:33.306 [Thread-4    ] INFO  d.j.m.r.TCPLineReceiver - Time: 2026-04-16T15:34:33.306997300Z, Message: $WIMWV,263.9,T,1.4,M,A*2D
2026-04-16 15:34:33.322 [WeatherColle] WARN  d.j.d.w.WeatherParser - Could not transform relative windDirection to true north, because no headingInformation is available
2026-04-16 15:34:33.322 [WeatherColle] WARN  d.j.d.w.WeatherParser - Could not transform relative windDirection to true north, because no headingInformation is available
2026-04-16 15:34:33.322 [WeatherColle] WARN  d.j.d.w.WeatherParser - Could not transform relative windDirection to true north, because no headingInformation is available
2026-04-16 15:34:33.322 [WeatherColle] WARN  d.j.d.w.WeatherParser - Could not transform relative windDirection to true north, because no headingInformation is available
2026-04-16 15:34:33.613 [Thread-2    ] INFO  d.j.m.r.TCPLineReceiver - Time: 2026-04-16T15:34:33.613644200Z, Message: $GPRMC,153433.00,A,5311.7780638,N,00830.9136540,E,0.0,,160426,3.7,E,D*1A
2026-04-16 15:34:33.623 [Thread-2    ] INFO  d.j.m.r.TCPLineReceiver - Time: 2026-04-16T15:34:33.623856800Z, Message: $GPGGA,153433.00,5311.7780638,N,00830.9136540,E,4,21,0.7,4.0593,M,46.3527,M,2.0,4095*44
2026-04-16 15:34:33.623 [Thread-2    ] INFO  d.j.m.r.TCPLineReceiver - Time: 2026-04-16T15:34:33.623856800Z, Message: $GPHDT,,T*1B
2026-04-16 15:34:33.623 [Thread-2    ] INFO  d.j.m.r.TCPLineReceiver - Time: 2026-04-16T15:34:33.623856800Z, Message: $GPGST,153433.00,0.216,0.009,0.005,11.853,0.009,0.005,0.011*6F
2026-04-16 15:34:34.293 [Thread-4    ] INFO  d.j.m.r.TCPLineReceiver - Time: 2026-04-16T15:34:34.293018900Z, Message: $WIMWV,267.7,R,1.1,M,A*24
2026-04-16 15:34:34.293 [Thread-4    ] INFO  d.j.m.r.TCPLineReceiver - Time: 2026-04-16T15:34:34.293018900Z, Message: $WIMWV,267.3,T,1.1,M,A*26
2026-04-16 15:34:34.293 [Thread-4    ] INFO  d.j.m.r.TCPLineReceiver - Time: 2026-04-16T15:34:34.293018900Z, Message: $WIMWV,266.2,R,1.0,M,A*21
2026-04-16 15:34:34.293 [Thread-4    ] INFO  d.j.m.r.TCPLineReceiver - Time: 2026-04-16T15:34:34.293018900Z, Message: $WIMWV,265.7,T,1.0,M,A*21
2026-04-16 15:34:34.340 [WeatherColle] WARN  d.j.d.w.WeatherParser - Could not transform relative windDirection to true north, because no headingInformation is available
2026-04-16 15:34:34.340 [WeatherColle] WARN  d.j.d.w.WeatherParser - Could not transform relative windDirection to true north, because no headingInformation is available
2026-04-16 15:34:34.340 [WeatherColle] WARN  d.j.d.w.WeatherParser - Could not transform relative windDirection to true north, because no headingInformation is available
2026-04-16 15:34:34.340 [WeatherColle] WARN  d.j.d.w.WeatherParser - Could not transform relative windDirection to true north, because no headingInformation is available
2026-04-16 15:34:34.645 [Thread-2    ] INFO  d.j.m.r.TCPLineReceiver - Time: 2026-04-16T15:34:34.645581Z, Message: $GPRMC,153434.00,A,5311.7780646,N,00830.9136618,E,0.0,,160426,3.7,E,D*1A
2026-04-16 15:34:34.645 [Thread-2    ] INFO  d.j.m.r.TCPLineReceiver - Time: 2026-04-16T15:34:34.645581Z, Message: $GPGGA,153434.00,5311.7780646,N,00830.9136618,E,4,20,0.7,4.0604,M,46.3527,M,1.0,4095*4B
2026-04-16 15:34:34.645 [Thread-2    ] INFO  d.j.m.r.TCPLineReceiver - Time: 2026-04-16T15:34:34.645581Z, Message: $GPHDT,,T*1B
2026-04-16 15:34:34.645 [Thread-2    ] INFO  d.j.m.r.TCPLineReceiver - Time: 2026-04-16T15:34:34.645581Z, Message: $GPGST,153434.00,0.294,0.009,0.005,11.259,0.009,0.005,0.011*62
2026-04-16 15:34:35.282 [Thread-4    ] INFO  d.j.m.r.TCPLineReceiver - Time: 2026-04-16T15:34:35.282812500Z, Message: $WIMWV,271.4,R,1.3,M,A*22
2026-04-16 15:34:35.282 [Thread-4    ] INFO  d.j.m.r.TCPLineReceiver - Time: 2026-04-16T15:34:35.282812500Z, Message: $WIMWV,271.0,T,1.3,M,A*20
2026-04-16 15:34:35.282 [Thread-4    ] INFO  d.j.m.r.TCPLineReceiver - Time: 2026-04-16T15:34:35.282812500Z, Message: $WIMWV,280.0,R,1.6,M,A*2D
2026-04-16 15:34:35.282 [Thread-4    ] INFO  d.j.m.r.TCPLineReceiver - Time: 2026-04-16T15:34:35.282812500Z, Message: $WIMWV,279.7,T,1.6,M,A*2A
2026-04-16 15:34:35.298 [WeatherColle] WARN  d.j.d.w.WeatherParser - Could not transform relative windDirection to true north, because no headingInformation is available
2026-04-16 15:34:35.298 [WeatherColle] WARN  d.j.d.w.WeatherParser - Could not transform relative windDirection to true north, because no headingInformation is available
2026-04-16 15:34:35.298 [WeatherColle] WARN  d.j.d.w.WeatherParser - Could not transform relative windDirection to true north, because no headingInformation is available
2026-04-16 15:34:35.298 [WeatherColle] WARN  d.j.d.w.WeatherParser - Could not transform relative windDirection to true north, because no headingInformation is available
2026-04-16 15:34:35.668 [Thread-2    ] INFO  d.j.m.r.TCPLineReceiver - Time: 2026-04-16T15:34:35.668438100Z, Message: $GPRMC,153435.00,A,5311.7780705,N,00830.9136705,E,0.0,,160426,3.7,E,D*10
2026-04-16 15:34:35.668 [Thread-2    ] INFO  d.j.m.r.TCPLineReceiver - Time: 2026-04-16T15:34:35.668438100Z, Message: $GPGGA,153435.00,5311.7780705,N,00830.9136705,E,4,21,0.7,4.0639,M,46.3527,M,1.0,4095*4E
2026-04-16 15:34:35.668 [Thread-2    ] INFO  d.j.m.r.TCPLineReceiver - Time: 2026-04-16T15:34:35.668438100Z, Message: $GPHDT,,T*1B
2026-04-16 15:34:35.668 [Thread-2    ] INFO  d.j.m.r.TCPLineReceiver - Time: 2026-04-16T15:34:35.668438100Z, Message: $GPGST,153435.00,0.237,0.009,0.005,10.705,0.009,0.005,0.011*67
2026-04-16 15:34:36.016 [Thread-3    ] INFO  d.j.m.r.TCPLineReceiver - Time: 2026-04-16T15:34:36.016714200Z, Message: !AIVDO,1,1,,,139vb@0P00PVveJNL6lN4?w02000,0*6D
2026-04-16 15:34:36.016 [Thread-3    ] INFO  d.j.m.r.TCPLineReceiver - Time: 2026-04-16T15:34:36.016714200Z, Message: !AIVDM,1,1,,B,14Rfh2001o0Voc4NOmB0?@900`CR,0*67
2026-04-16 15:34:36.016 [Thread-3    ] INFO  d.j.m.r.TCPLineReceiver - Time: 2026-04-16T15:34:36.016714200Z, Message: !AIVDM,1,1,,B,139Vl7P000PWJSjNK7j<R`e20L0j,0*20
2026-04-16 15:34:36.016 [Thread-3    ] INFO  d.j.m.r.TCPLineReceiver - Time: 2026-04-16T15:34:36.016714200Z, Message: !AIVDO,1,1,,,139vb@0P00PVveJNL6lN4?w22000,0*6F
2026-04-16 15:34:36.016 [Thread-3    ] INFO  d.j.m.r.TCPLineReceiver - Time: 2026-04-16T15:34:36.016714200Z, Message: !AIVDM,1,1,,A,139qSn0P000`0wRNHi@ce?w60HD5,0*2A
2026-04-16 15:34:36.016 [Thread-3    ] INFO  d.j.m.r.TCPLineReceiver - Time: 2026-04-16T15:34:36.016714200Z, Message: !AIVDM,1,1,,B,34R2L650000WvwNNHkI:IbW40DP:,0*5D
2026-04-16 15:34:36.016 [Thread-3    ] INFO  d.j.m.r.TCPLineReceiver - Time: 2026-04-16T15:34:36.016714200Z, Message: !AIVDM,1,1,,A,339K8WP0000WtlfNI3fAsAc000<3,0*3F
2026-04-16 15:34:36.016 [Thread-3    ] INFO  d.j.m.r.TCPLineReceiver - Time: 2026-04-16T15:34:36.016714200Z, Message: !AIVDO,1,1,,,139vb@0P00PVveJNL6lN4?w42000,0*69
2026-04-16 15:34:36.016 [Thread-3    ] INFO  d.j.m.r.TCPLineReceiver - Time: 2026-04-16T15:34:36.016714200Z, Message: !AIVDM,1,1,,B,139o31PP00PW;u8NKU8>4?w420T4,0*7E
2026-04-16 15:34:36.019 [Thread-3    ] INFO  d.j.m.r.TCPLineReceiver - Time: 2026-04-16T15:34:36.019488900Z, Message: !AIVDM,1,1,,A,139fvigP?w<tSF0l4Q@>4?wv0h@T,0*47
2026-04-16 15:34:36.284 [Thread-4    ] INFO  d.j.m.r.TCPLineReceiver - Time: 2026-04-16T15:34:36.284241400Z, Message: $WIMWV,284.4,R,1.4,M,A*2F
2026-04-16 15:34:36.284 [Thread-4    ] INFO  d.j.m.r.TCPLineReceiver - Time: 2026-04-16T15:34:36.284241400Z, Message: $WIMWV,284.1,T,1.4,M,A*2C
2026-04-16 15:34:36.284 [Thread-4    ] INFO  d.j.m.r.TCPLineReceiver - Time: 2026-04-16T15:34:36.284241400Z, Message: $WIMWV,288.3,R,1.2,M,A*22
2026-04-16 15:34:36.284 [Thread-4    ] INFO  d.j.m.r.TCPLineReceiver - Time: 2026-04-16T15:34:36.284241400Z, Message: $WIMWV,287.9,T,1.2,M,A*21
2026-04-16 15:34:36.315 [WeatherColle] WARN  d.j.d.w.WeatherParser - Could not transform relative windDirection to true north, because no headingInformation is available
2026-04-16 15:34:36.315 [WeatherColle] WARN  d.j.d.w.WeatherParser - Could not transform relative windDirection to true north, because no headingInformation is available
2026-04-16 15:34:36.315 [WeatherColle] WARN  d.j.d.w.WeatherParser - Could not transform relative windDirection to true north, because no headingInformation is available
2026-04-16 15:34:36.315 [WeatherColle] WARN  d.j.d.w.WeatherParser - Could not transform relative windDirection to true north, because no headingInformation is available
2026-04-16 15:34:36.694 [Thread-2    ] INFO  d.j.m.r.TCPLineReceiver - Time: 2026-04-16T15:34:36.694934100Z, Message: $GPRMC,153436.00,A,5311.7780766,N,00830.9136756,E,0.0,,160426,3.7,E,D*10
2026-04-16 15:34:36.694 [Thread-2    ] INFO  d.j.m.r.TCPLineReceiver - Time: 2026-04-16T15:34:36.694934100Z, Message: $GPGGA,153436.00,5311.7780766,N,00830.9136756,E,4,21,0.7,4.0600,M,46.3527,M,1.0,4095*44
2026-04-16 15:34:36.694 [Thread-2    ] INFO  d.j.m.r.TCPLineReceiver - Time: 2026-04-16T15:34:36.694934100Z, Message: $GPHDT,,T*1B
2026-04-16 15:34:36.694 [Thread-2    ] INFO  d.j.m.r.TCPLineReceiver - Time: 2026-04-16T15:34:36.694934100Z, Message: $GPGST,153436.00,0.264,0.009,0.005,11.244,0.009,0.005,0.011*63
2026-04-16 15:34:37.280 [Thread-4    ] INFO  d.j.m.r.TCPLineReceiver - Time: 2026-04-16T15:34:37.280996600Z, Message: $WIMWV,294.0,R,1.1,M,A*2F
2026-04-16 15:34:37.281 [Thread-4    ] INFO  d.j.m.r.TCPLineReceiver - Time: 2026-04-16T15:34:37.281559300Z, Message: $WIMWV,293.6,T,1.1,M,A*28
2026-04-16 15:34:37.281 [Thread-4    ] INFO  d.j.m.r.TCPLineReceiver - Time: 2026-04-16T15:34:37.281559300Z, Message: $WIMWV,308.8,R,1.2,M,A*20
2026-04-16 15:34:37.281 [Thread-4    ] INFO  d.j.m.r.TCPLineReceiver - Time: 2026-04-16T15:34:37.281559300Z, Message: $WIMWV,308.5,T,1.2,M,A*2B
2026-04-16 15:34:37.328 [WeatherColle] WARN  d.j.d.w.WeatherParser - Could not transform relative windDirection to true north, because no headingInformation is available
2026-04-16 15:34:37.328 [WeatherColle] WARN  d.j.d.w.WeatherParser - Could not transform relative windDirection to true north, because no headingInformation is available
2026-04-16 15:34:37.328 [WeatherColle] WARN  d.j.d.w.WeatherParser - Could not transform relative windDirection to true north, because no headingInformation is available
2026-04-16 15:34:37.329 [WeatherColle] WARN  d.j.d.w.WeatherParser - Could not transform relative windDirection to true north, because no headingInformation is available
2026-04-16 15:34:37.711 [Thread-2    ] INFO  d.j.m.r.TCPLineReceiver - Time: 2026-04-16T15:34:37.711262Z, Message: $GPRMC,153437.00,A,5311.7780817,N,00830.9136776,E,0.0,,160426,3.7,E,D*1A
2026-04-16 15:34:37.711 [Thread-2    ] INFO  d.j.m.r.TCPLineReceiver - Time: 2026-04-16T15:34:37.711262Z, Message: $GPGGA,153437.00,5311.7780817,N,00830.9136776,E,4,21,0.7,4.0593,M,46.3527,M,1.0,4095*47
2026-04-16 15:34:37.711 [Thread-2    ] INFO  d.j.m.r.TCPLineReceiver - Time: 2026-04-16T15:34:37.711262Z, Message: $GPHDT,,T*1B
2026-04-16 15:34:37.711 [Thread-2    ] INFO  d.j.m.r.TCPLineReceiver - Time: 2026-04-16T15:34:37.711262Z, Message: $GPGST,153437.00,0.200,0.009,0.005,11.171,0.009,0.005,0.011*65
2026-04-16 15:34:37.901 [Thread-3    ] INFO  d.j.m.r.TCPLineReceiver - Time: 2026-04-16T15:34:37.901945200Z, Message: !AIVDM,1,1,,B,139idk0000PVu;0NLNcEv5;62@Dw,0*65
2026-04-16 15:34:37.901 [Thread-3    ] INFO  d.j.m.r.TCPLineReceiver - Time: 2026-04-16T15:34:37.901945200Z, Message: !AIVDM,2,1,8,A,539K8W`2:1nt@@mT001H:098DlE8P5HDp000000l1hA554kdN=0DljD,0*48
2026-04-16 15:34:37.901 [Thread-3    ] INFO  d.j.m.r.TCPLineReceiver - Time: 2026-04-16T15:34:37.901945200Z, Message: !AIVDM,2,2,8,A,m85iDiDP00000000,2*2C
2026-04-16 15:34:37.901 [Thread-3    ] INFO  d.j.m.r.TCPLineReceiver - Time: 2026-04-16T15:34:37.901945200Z, Message: !AIVDO,1,1,,,139vb@0P00PVveJNL6lN4?w62000,0*6B
2026-04-16 15:34:37.901 [Thread-3    ] INFO  d.j.m.r.TCPLineReceiver - Time: 2026-04-16T15:34:37.901945200Z, Message: !AIVDM,1,1,,A,139f0<P019PVt?NNLIFEjTU825r8,0*4A
2026-04-16 15:34:37.901 [Thread-3    ] INFO  d.j.m.r.TCPLineReceiver - Time: 2026-04-16T15:34:37.901945200Z, Message: !AIVDM,1,1,,B,33`hG?@P00PWt:pNIN4N4?w824<k,0*5A
2026-04-16 15:34:37.901 [Thread-3    ] INFO  d.j.m.r.TCPLineReceiver - Time: 2026-04-16T15:34:37.901945200Z, Message: !AIVDM,1,1,,A,139LOfPP00PVwRdNL<7f4?w825r8,0*59
2026-04-16 15:34:37.901 [Thread-3    ] INFO  d.j.m.r.TCPLineReceiver - Time: 2026-04-16T15:34:37.901945200Z, Message: !AIVDO,1,1,,,139vb@0P00PVveFNL6lN4?w82000,0*69
2026-04-16 15:34:37.901 [Thread-3    ] INFO  d.j.m.r.TCPLineReceiver - Time: 2026-04-16T15:34:37.901945200Z, Message: !AIVDM,1,1,,B,339`iS50000Vu9hNLN`C45760DVb,0*2E
2026-04-16 15:34:38.269 [Thread-4    ] INFO  d.j.m.r.TCPLineReceiver - Time: 2026-04-16T15:34:38.269795200Z, Message: $WIMWV,314.2,R,1.3,M,A*26
2026-04-16 15:34:38.269 [Thread-4    ] INFO  d.j.m.r.TCPLineReceiver - Time: 2026-04-16T15:34:38.269795200Z, Message: $WIMWV,314.0,T,1.3,M,A*22
2026-04-16 15:34:38.269 [Thread-4    ] INFO  d.j.m.r.TCPLineReceiver - Time: 2026-04-16T15:34:38.269795200Z, Message: $WIMWV,318.7,R,1.2,M,A*2E
2026-04-16 15:34:38.269 [Thread-4    ] INFO  d.j.m.r.TCPLineReceiver - Time: 2026-04-16T15:34:38.269795200Z, Message: $WIMWV,318.2,T,1.2,M,A*2D
2026-04-16 15:34:38.285 [WeatherColle] WARN  d.j.d.w.WeatherParser - Could not transform relative windDirection to true north, because no headingInformation is available
2026-04-16 15:34:38.285 [WeatherColle] WARN  d.j.d.w.WeatherParser - Could not transform relative windDirection to true north, because no headingInformation is available
2026-04-16 15:34:38.285 [WeatherColle] WARN  d.j.d.w.WeatherParser - Could not transform relative windDirection to true north, because no headingInformation is available
2026-04-16 15:34:38.285 [WeatherColle] WARN  d.j.d.w.WeatherParser - Could not transform relative windDirection to true north, because no headingInformation is available
2026-04-16 15:34:38.743 [Thread-2    ] INFO  d.j.m.r.TCPLineReceiver - Time: 2026-04-16T15:34:38.743249700Z, Message: $GPRMC,153438.00,A,5311.7780860,N,00830.9136807,E,0.0,,160426,3.7,E,D*1C
2026-04-16 15:34:38.743 [Thread-2    ] INFO  d.j.m.r.TCPLineReceiver - Time: 2026-04-16T15:34:38.743249700Z, Message: $GPGGA,153438.00,5311.7780860,N,00830.9136807,E,4,21,0.7,4.0559,M,46.3527,M,2.0,4095*44
2026-04-16 15:34:38.743 [Thread-2    ] INFO  d.j.m.r.TCPLineReceiver - Time: 2026-04-16T15:34:38.743249700Z, Message: $GPHDT,,T*1B
2026-04-16 15:34:38.743 [Thread-2    ] INFO  d.j.m.r.TCPLineReceiver - Time: 2026-04-16T15:34:38.743249700Z, Message: $GPGST,153438.00,0.168,0.009,0.005,12.236,0.009,0.005,0.010*65
2026-04-16 15:34:39.269 [Thread-4    ] INFO  d.j.m.r.TCPLineReceiver - Time: 2026-04-16T15:34:39.269105Z, Message: $WIMWV,326.7,R,1.2,M,A*23
2026-04-16 15:34:39.269 [Thread-4    ] INFO  d.j.m.r.TCPLineReceiver - Time: 2026-04-16T15:34:39.269105Z, Message: $WIMWV,326.2,T,1.2,M,A*20
2026-04-16 15:34:39.269 [Thread-4    ] INFO  d.j.m.r.TCPLineReceiver - Time: 2026-04-16T15:34:39.269105Z, Message: $WIMWV,312.9,R,1.3,M,A*2B
2026-04-16 15:34:39.269 [Thread-4    ] INFO  d.j.m.r.TCPLineReceiver - Time: 2026-04-16T15:34:39.269105Z, Message: $WIMWV,312.3,T,1.3,M,A*27
2026-04-16 15:34:39.300 [WeatherColle] WARN  d.j.d.w.WeatherParser - Could not transform relative windDirection to true north, because no headingInformation is available
2026-04-16 15:34:39.300 [WeatherColle] WARN  d.j.d.w.WeatherParser - Could not transform relative windDirection to true north, because no headingInformation is available
2026-04-16 15:34:39.300 [WeatherColle] WARN  d.j.d.w.WeatherParser - Could not transform relative windDirection to true north, because no headingInformation is available
2026-04-16 15:34:39.300 [WeatherColle] WARN  d.j.d.w.WeatherParser - Could not transform relative windDirection to true north, because no headingInformation is available
2026-04-16 15:34:39.316 [Thread-3    ] INFO  d.j.m.r.TCPLineReceiver - Time: 2026-04-16T15:34:39.316139700Z, Message: !AIVDM,1,1,,B,139fviPP0OPWMOPNK54CSgw:2<1=,0*71
2026-04-16 15:34:39.316 [Thread-3    ] INFO  d.j.m.r.TCPLineReceiver - Time: 2026-04-16T15:34:39.316139700Z, Message: !AIVDO,1,1,,,139vb@0P00PVveFNL6lN4?w:2000,0*6B
2026-04-16 15:34:39.316 [Thread-3    ] INFO  d.j.m.r.TCPLineReceiver - Time: 2026-04-16T15:34:39.316139700Z, Message: !AIVDM,1,1,,B,13aL<40P00PVqWnNQ@6v4?w:RD0H,0*1B
2026-04-16 15:34:39.316 [Thread-3    ] INFO  d.j.m.r.TCPLineReceiver - Time: 2026-04-16T15:34:39.316139700Z, Message: !AIVDM,1,1,,A,13aIAuPP00PVgdjNMCFh0?w<2<0A,0*02
2026-04-16 15:34:39.316 [Thread-3    ] INFO  d.j.m.r.TCPLineReceiver - Time: 2026-04-16T15:34:39.316139700Z, Message: !AIVDM,1,1,,A,13q5JI0P00PVdrLNLtHf4?w<20SL,0*5A
2026-04-16 15:34:39.761 [Thread-2    ] INFO  d.j.m.r.TCPLineReceiver - Time: 2026-04-16T15:34:39.761819300Z, Message: $GPRMC,153439.00,A,5311.7780910,N,00830.9136808,E,0.0,,160426,3.7,E,D*14
2026-04-16 15:34:39.761 [Thread-2    ] INFO  d.j.m.r.TCPLineReceiver - Time: 2026-04-16T15:34:39.761819300Z, Message: $GPGGA,153439.00,5311.7780910,N,00830.9136808,E,4,21,0.7,4.0606,M,46.3527,M,1.0,4095*46
2026-04-16 15:34:39.761 [Thread-2    ] INFO  d.j.m.r.TCPLineReceiver - Time: 2026-04-16T15:34:39.761819300Z, Message: $GPHDT,,T*1B
2026-04-16 15:34:39.761 [Thread-2    ] INFO  d.j.m.r.TCPLineReceiver - Time: 2026-04-16T15:34:39.761819300Z, Message: $GPGST,153439.00,0.293,0.009,0.005,12.780,0.009,0.005,0.011*6A
2026-04-16 15:34:40.265 [Thread-4    ] INFO  d.j.m.r.TCPLineReceiver - Time: 2026-04-16T15:34:40.265222600Z, Message: $WIMWV,314.1,R,1.1,M,A*27
2026-04-16 15:34:40.265 [Thread-4    ] INFO  d.j.m.r.TCPLineReceiver - Time: 2026-04-16T15:34:40.265222600Z, Message: $WIMWV,313.4,T,1.1,M,A*23
2026-04-16 15:34:40.265 [Thread-4    ] INFO  d.j.m.r.TCPLineReceiver - Time: 2026-04-16T15:34:40.265805700Z, Message: $WIMWV,319.8,R,1.1,M,A*23
2026-04-16 15:34:40.265 [Thread-4    ] INFO  d.j.m.r.TCPLineReceiver - Time: 2026-04-16T15:34:40.265805700Z, Message: $WIMWV,319.5,T,1.1,M,A*28
2026-04-16 15:34:40.311 [WeatherColle] WARN  d.j.d.w.WeatherParser - Could not transform relative windDirection to true north, because no headingInformation is available
2026-04-16 15:34:40.311 [WeatherColle] WARN  d.j.d.w.WeatherParser - Could not transform relative windDirection to true north, because no headingInformation is available
2026-04-16 15:34:40.312 [WeatherColle] WARN  d.j.d.w.WeatherParser - Could not transform relative windDirection to true north, because no headingInformation is available
2026-04-16 15:34:40.312 [WeatherColle] WARN  d.j.d.w.WeatherParser - Could not transform relative windDirection to true north, because no headingInformation is available
2026-04-16 15:34:40.789 [Thread-2    ] INFO  d.j.m.r.TCPLineReceiver - Time: 2026-04-16T15:34:40.789964600Z, Message: $GPRMC,153440.00,A,5311.7780928,N,00830.9136825,E,0.0,,160426,3.7,E,D*1E
2026-04-16 15:34:40.789 [Thread-2    ] INFO  d.j.m.r.TCPLineReceiver - Time: 2026-04-16T15:34:40.789964600Z, Message: $GPGGA,153440.00,5311.7780928,N,00830.9136825,E,4,21,0.7,4.0598,M,46.3527,M,1.0,4095*48
2026-04-16 15:34:40.789 [Thread-2    ] INFO  d.j.m.r.TCPLineReceiver - Time: 2026-04-16T15:34:40.789964600Z, Message: $GPHDT,,T*1B
2026-04-16 15:34:40.791 [Thread-2    ] INFO  d.j.m.r.TCPLineReceiver - Time: 2026-04-16T15:34:40.791976900Z, Message: $GPGST,153440.00,0.269,0.009,0.005,13.145,0.009,0.005,0.010*6E
2026-04-16 15:34:40.863 [Thread-3    ] INFO  d.j.m.r.TCPLineReceiver - Time: 2026-04-16T15:34:40.863342300Z, Message: !AIVDO,1,1,,,139vb@0P00PVveFNL6lN4?w<2000,0*6D
2026-04-16 15:34:40.863 [Thread-3    ] INFO  d.j.m.r.TCPLineReceiver - Time: 2026-04-16T15:34:40.863342300Z, Message: !AIVDM,1,1,,A,14hS;t5100PWI=BNK9=acHk:05r8,0*37
2026-04-16 15:34:40.863 [Thread-3    ] INFO  d.j.m.r.TCPLineReceiver - Time: 2026-04-16T15:34:40.863921700Z, Message: !AIVDM,1,1,,B,139EPnPP000`3;PNHprD3?w<PD1T,0*1B
2026-04-16 15:34:40.863 [Thread-3    ] INFO  d.j.m.r.TCPLineReceiver - Time: 2026-04-16T15:34:40.863921700Z, Message: !AIVDM,1,1,,A,139g;o0P00PW6kdNKdi00?w>28G9,0*7A
2026-04-16 15:34:40.863 [Thread-3    ] INFO  d.j.m.r.TCPLineReceiver - Time: 2026-04-16T15:34:40.863921700Z, Message: !AIVDO,1,1,,B,139vb@0P00PVveFNL6lN4?w>2D0e,0*0C
2026-04-16 15:34:40.863 [Thread-3    ] INFO  d.j.m.r.TCPLineReceiver - Time: 2026-04-16T15:34:40.863921700Z, Message: !AIVDO,1,1,,,139vb@0P00PVveFNL6lN4?w>2000,0*6F
2026-04-16 15:34:41.257 [Thread-4    ] INFO  d.j.m.r.TCPLineReceiver - Time: 2026-04-16T15:34:41.257237500Z, Message: $WIMWV,327.9,R,1.3,M,A*2D
2026-04-16 15:34:41.257 [Thread-4    ] INFO  d.j.m.r.TCPLineReceiver - Time: 2026-04-16T15:34:41.257237500Z, Message: $WIMWV,327.7,T,1.3,M,A*25
2026-04-16 15:34:41.257 [Thread-4    ] INFO  d.j.m.r.TCPLineReceiver - Time: 2026-04-16T15:34:41.257237500Z, Message: $WIMWV,328.7,R,1.5,M,A*2A
2026-04-16 15:34:41.257 [Thread-4    ] INFO  d.j.m.r.TCPLineReceiver - Time: 2026-04-16T15:34:41.257882800Z, Message: $WIMWV,328.6,T,1.5,M,A*2D
2026-04-16 15:34:41.320 [WeatherColle] WARN  d.j.d.w.WeatherParser - Could not transform relative windDirection to true north, because no headingInformation is available
2026-04-16 15:34:41.320 [WeatherColle] WARN  d.j.d.w.WeatherParser - Could not transform relative windDirection to true north, because no headingInformation is available
2026-04-16 15:34:41.320 [WeatherColle] WARN  d.j.d.w.WeatherParser - Could not transform relative windDirection to true north, because no headingInformation is available
2026-04-16 15:34:41.320 [WeatherColle] WARN  d.j.d.w.WeatherParser - Could not transform relative windDirection to true north, because no headingInformation is available
2026-04-16 15:34:41.813 [Thread-2    ] INFO  d.j.m.r.TCPLineReceiver - Time: 2026-04-16T15:34:41.813030600Z, Message: $GPRMC,153441.00,A,5311.7780924,N,00830.9136813,E,0.0,,160426,3.7,E,D*16
2026-04-16 15:34:41.813 [Thread-2    ] INFO  d.j.m.r.TCPLineReceiver - Time: 2026-04-16T15:34:41.813030600Z, Message: $GPGGA,153441.00,5311.7780924,N,00830.9136813,E,4,21,0.7,4.0606,M,46.3527,M,1.0,4095*44
2026-04-16 15:34:41.813 [Thread-2    ] INFO  d.j.m.r.TCPLineReceiver - Time: 2026-04-16T15:34:41.813030600Z, Message: $GPHDT,,T*1B
2026-04-16 15:34:41.813 [Thread-2    ] INFO  d.j.m.r.TCPLineReceiver - Time: 2026-04-16T15:34:41.813030600Z, Message: $GPGST,153441.00,0.205,0.009,0.005,12.540,0.009,0.005,0.011*64
2026-04-16 15:34:41.872 [Thread-3    ] INFO  d.j.m.r.TCPLineReceiver - Time: 2026-04-16T15:34:41.872119900Z, Message: !AIVDM,1,1,,B,B39HHrP0?09d@cWWLAeuCwl1h8Gh,0*05
2026-04-16 15:34:41.872 [Thread-3    ] INFO  d.j.m.r.TCPLineReceiver - Time: 2026-04-16T15:34:41.872119900Z, Message: !AIVDM,1,1,,A,13:1boRP00PVgdDNMBBf4?w@2HGj,0*6F
2026-04-16 15:34:41.872 [Thread-3    ] INFO  d.j.m.r.TCPLineReceiver - Time: 2026-04-16T15:34:41.872119900Z, Message: !AIVDM,1,1,,B,13aHle@P00PWt86NIMjN4?w@28Gq,0*04
2026-04-16 15:34:41.872 [Thread-3    ] INFO  d.j.m.r.TCPLineReceiver - Time: 2026-04-16T15:34:41.872119900Z, Message: !AIVDO,1,1,,,139vb@0P00PVveFNL6lN4?w@2000,0*11
2026-04-16 15:34:41.888 [AISCollector] WARN  d.j.d.a.AISParser - Could not parse AIS Message: !AIVDM,1,1,,B,B39HHrP0?09d@cWWLAeuCwl1h8Gh,0*05 Current collected payload: B39HHrP0?09d@cWWLAeuCwl1h8Gh
2026-04-16 15:34:42.158 [RouteSegment] INFO  d.j.a.r.RouteSegmentatorD - Try to determine route(15)
2026-04-16 15:34:42.158 [FerryModeCal] INFO  d.j.a.f.FerryModeCalculator - Set ferrymode to value: 1 (Farge: true, JuliusPlate: false, Roennebeck: false)
2026-04-16 15:34:42.158 [RouteSegment] INFO  d.j.a.r.RouteSegmentatorD - There are not enough sections for creating a route: containsAAndLowSpeed: true, containsBAndLowSpeed: false, containsNONE: false
2026-04-16 15:34:42.240 [Thread-4    ] INFO  d.j.m.r.TCPLineReceiver - Time: 2026-04-16T15:34:42.240237900Z, Message: $WIMWV,319.9,R,1.2,M,A*21
2026-04-16 15:34:42.240 [Thread-4    ] INFO  d.j.m.r.TCPLineReceiver - Time: 2026-04-16T15:34:42.240237900Z, Message: $WIMWV,319.7,T,1.2,M,A*29
2026-04-16 15:34:42.240 [Thread-4    ] INFO  d.j.m.r.TCPLineReceiver - Time: 2026-04-16T15:34:42.240237900Z, Message: $WIMWV,322.8,R,1.3,M,A*29
2026-04-16 15:34:42.240 [Thread-4    ] INFO  d.j.m.r.TCPLineReceiver - Time: 2026-04-16T15:34:42.240237900Z, Message: $WIMWV,322.6,T,1.3,M,A*21
2026-04-16 15:34:42.271 [WeatherColle] WARN  d.j.d.w.WeatherParser - Could not transform relative windDirection to true north, because no headingInformation is available
2026-04-16 15:34:42.271 [WeatherColle] WARN  d.j.d.w.WeatherParser - Could not transform relative windDirection to true north, because no headingInformation is available
2026-04-16 15:34:42.271 [WeatherColle] WARN  d.j.d.w.WeatherParser - Could not transform relative windDirection to true north, because no headingInformation is available
2026-04-16 15:34:42.271 [WeatherColle] WARN  d.j.d.w.WeatherParser - Could not transform relative windDirection to true north, because no headingInformation is available
2026-04-16 15:34:42.839 [Thread-2    ] INFO  d.j.m.r.TCPLineReceiver - Time: 2026-04-16T15:34:42.839019300Z, Message: $GPRMC,153442.00,A,5311.7780947,N,00830.9136826,E,0.0,,160426,3.7,E,D*16
2026-04-16 15:34:42.839 [Thread-2    ] INFO  d.j.m.r.TCPLineReceiver - Time: 2026-04-16T15:34:42.839019300Z, Message: $GPGGA,153442.00,5311.7780947,N,00830.9136826,E,4,21,0.7,4.0616,M,46.3527,M,1.0,4095*45
2026-04-16 15:34:42.839 [Thread-2    ] INFO  d.j.m.r.TCPLineReceiver - Time: 2026-04-16T15:34:42.839019300Z, Message: $GPHDT,,T*1B
2026-04-16 15:34:42.839 [Thread-2    ] INFO  d.j.m.r.TCPLineReceiver - Time: 2026-04-16T15:34:42.839019300Z, Message: $GPGST,153442.00,0.199,0.009,0.005,12.365,0.009,0.005,0.011*60
2026-04-16 15:34:42.854 [Thread-3    ] INFO  d.j.m.r.TCPLineReceiver - Time: 2026-04-16T15:34:42.854834900Z, Message: !AIVDM,2,1,9,B,539Vl7`00000@7O?3@0M8DTH000000000000000l1P;25<0Ht000000,0*25
2026-04-16 15:34:42.854 [Thread-3    ] INFO  d.j.m.r.TCPLineReceiver - Time: 2026-04-16T15:34:42.854834900Z, Message: !AIVDM,2,2,9,B,0000000000000000,2*1E
2026-04-16 15:34:42.854 [Thread-3    ] INFO  d.j.m.r.TCPLineReceiver - Time: 2026-04-16T15:34:42.854834900Z, Message: !AIVDM,1,1,,B,13KvSF00020WrCTNIP69f@uD0HHD,0*34
2026-04-16 15:34:42.854 [Thread-3    ] INFO  d.j.m.r.TCPLineReceiver - Time: 2026-04-16T15:34:42.854834900Z, Message: !AIVDO,1,1,,,139vb@0P00PVveFNL6lN4?wB2000,0*13
2026-04-16 15:34:43.235 [Thread-4    ] INFO  d.j.m.r.TCPLineReceiver - Time: 2026-04-16T15:34:43.235289900Z, Message: $WIMWV,319.4,R,1.5,M,A*2B
2026-04-16 15:34:43.235 [Thread-4    ] INFO  d.j.m.r.TCPLineReceiver - Time: 2026-04-16T15:34:43.235289900Z, Message: $WIMWV,319.2,T,1.5,M,A*2B
2026-04-16 15:34:43.235 [Thread-4    ] INFO  d.j.m.r.TCPLineReceiver - Time: 2026-04-16T15:34:43.235837600Z, Message: $WIMWV,315.5,R,1.5,M,A*26
2026-04-16 15:34:43.235 [Thread-4    ] INFO  d.j.m.r.TCPLineReceiver - Time: 2026-04-16T15:34:43.235837600Z, Message: $WIMWV,315.3,T,1.5,M,A*26
2026-04-16 15:34:43.282 [WeatherColle] WARN  d.j.d.w.WeatherParser - Could not transform relative windDirection to true north, because no headingInformation is available
2026-04-16 15:34:43.282 [WeatherColle] WARN  d.j.d.w.WeatherParser - Could not transform relative windDirection to true north, because no headingInformation is available
2026-04-16 15:34:43.283 [WeatherColle] WARN  d.j.d.w.WeatherParser - Could not transform relative windDirection to true north, because no headingInformation is available
2026-04-16 15:34:43.283 [WeatherColle] WARN  d.j.d.w.WeatherParser - Could not transform relative windDirection to true north, because no headingInformation is available
2026-04-16 15:34:43.862 [Thread-2    ] INFO  d.j.m.r.TCPLineReceiver - Time: 2026-04-16T15:34:43.862589Z, Message: $GPRMC,153443.00,A,5311.7781005,N,00830.9136893,E,0.0,,160426,3.7,E,D*17
2026-04-16 15:34:43.862 [Thread-2    ] INFO  d.j.m.r.TCPLineReceiver - Time: 2026-04-16T15:34:43.862589Z, Message: $GPGGA,153443.00,5311.7781005,N,00830.9136893,E,4,21,0.7,4.0627,M,46.3527,M,1.0,4095*46
2026-04-16 15:34:43.862 [Thread-2    ] INFO  d.j.m.r.TCPLineReceiver - Time: 2026-04-16T15:34:43.862589Z, Message: $GPHDT,,T*1B
2026-04-16 15:34:43.862 [Thread-2    ] INFO  d.j.m.r.TCPLineReceiver - Time: 2026-04-16T15:34:43.862589Z, Message: $GPGST,153443.00,0.250,0.009,0.005,12.113,0.009,0.005,0.011*64
2026-04-16 15:34:44.232 [Thread-4    ] INFO  d.j.m.r.TCPLineReceiver - Time: 2026-04-16T15:34:44.232451400Z, Message: $WIMWV,318.0,R,1.6,M,A*2D
2026-04-16 15:34:44.232 [Thread-4    ] INFO  d.j.m.r.TCPLineReceiver - Time: 2026-04-16T15:34:44.232451400Z, Message: $WIMWV,317.8,T,1.6,M,A*2C
2026-04-16 15:34:44.232 [Thread-4    ] INFO  d.j.m.r.TCPLineReceiver - Time: 2026-04-16T15:34:44.232451400Z, Message: $WIMWV,318.0,R,1.6,M,A*2D
2026-04-16 15:34:44.232 [Thread-4    ] INFO  d.j.m.r.TCPLineReceiver - Time: 2026-04-16T15:34:44.232451400Z, Message: $WIMWV,317.8,T,1.6,M,A*2C
2026-04-16 15:34:44.295 [WeatherColle] WARN  d.j.d.w.WeatherParser - Could not transform relative windDirection to true north, because no headingInformation is available
2026-04-16 15:34:44.295 [WeatherColle] WARN  d.j.d.w.WeatherParser - Could not transform relative windDirection to true north, because no headingInformation is available
2026-04-16 15:34:44.295 [WeatherColle] WARN  d.j.d.w.WeatherParser - Could not transform relative windDirection to true north, because no headingInformation is available
2026-04-16 15:34:44.295 [WeatherColle] WARN  d.j.d.w.WeatherParser - Could not transform relative windDirection to true north, because no headingInformation is available
2026-04-16 15:34:44.884 [Thread-2    ] INFO  d.j.m.r.TCPLineReceiver - Time: 2026-04-16T15:34:44.884140Z, Message: $GPRMC,153444.00,A,5311.7781062,N,00830.9136999,E,0.0,,160426,3.7,E,D*1A
2026-04-16 15:34:44.884 [Thread-2    ] INFO  d.j.m.r.TCPLineReceiver - Time: 2026-04-16T15:34:44.884140Z, Message: $GPGGA,153444.00,5311.7781062,N,00830.9136999,E,4,20,0.7,4.0617,M,46.3527,M,2.0,4095*4A
2026-04-16 15:34:44.884 [Thread-2    ] INFO  d.j.m.r.TCPLineReceiver - Time: 2026-04-16T15:34:44.884140Z, Message: $GPHDT,,T*1B
2026-04-16 15:34:44.884 [Thread-2    ] INFO  d.j.m.r.TCPLineReceiver - Time: 2026-04-16T15:34:44.884140Z, Message: $GPGST,153444.00,0.188,0.009,0.005,12.435,0.009,0.005,0.011*64
2026-04-16 15:34:45.234 [Thread-4    ] INFO  d.j.m.r.TCPLineReceiver - Time: 2026-04-16T15:34:45.234671300Z, Message: $WIMWV,318.7,R,1.7,M,A*2B
2026-04-16 15:34:45.234 [Thread-4    ] INFO  d.j.m.r.TCPLineReceiver - Time: 2026-04-16T15:34:45.234671300Z, Message: $WIMWV,318.5,T,1.7,M,A*2F
2026-04-16 15:34:45.234 [Thread-4    ] INFO  d.j.m.r.TCPLineReceiver - Time: 2026-04-16T15:34:45.234671300Z, Message: $WIMWV,318.7,R,1.7,M,A*2B
2026-04-16 15:34:45.234 [Thread-4    ] INFO  d.j.m.r.TCPLineReceiver - Time: 2026-04-16T15:34:45.234671300Z, Message: $WIMWV,318.3,T,1.7,M,A*29
2026-04-16 15:34:45.250 [WeatherColle] WARN  d.j.d.w.WeatherParser - Could not transform relative windDirection to true north, because no headingInformation is available
2026-04-16 15:34:45.250 [WeatherColle] WARN  d.j.d.w.WeatherParser - Could not transform relative windDirection to true north, because no headingInformation is available
2026-04-16 15:34:45.250 [WeatherColle] WARN  d.j.d.w.WeatherParser - Could not transform relative windDirection to true north, because no headingInformation is available
2026-04-16 15:34:45.250 [WeatherColle] WARN  d.j.d.w.WeatherParser - Could not transform relative windDirection to true north, because no headingInformation is available
2026-04-16 15:34:45.282 [Thread-3    ] INFO  d.j.m.r.TCPLineReceiver - Time: 2026-04-16T15:34:45.282591600Z, Message: !AIVDM,1,1,,A,14Rfh2001o0VodbNOnLP>P9B0PSS,0*1A
2026-04-16 15:34:45.282 [Thread-3    ] INFO  d.j.m.r.TCPLineReceiver - Time: 2026-04-16T15:34:45.282591600Z, Message: !AIVDM,1,1,,A,139Vl7P000PWJSrNK7j<T`eD08I1,0*1D
2026-04-16 15:34:45.282 [Thread-3    ] INFO  d.j.m.r.TCPLineReceiver - Time: 2026-04-16T15:34:45.282591600Z, Message: !AIVDO,1,1,,,139vb@0P00PVveFNL6lN4?wD2000,0*15
2026-04-16 15:34:45.282 [Thread-3    ] INFO  d.j.m.r.TCPLineReceiver - Time: 2026-04-16T15:34:45.282591600Z, Message: !AIVDM,2,1,0,B,539idk400000@gKOOL1LE<E90h5@D0000000000Q2h5436dc001PDQi,0*6F
2026-04-16 15:34:45.282 [Thread-3    ] INFO  d.j.m.r.TCPLineReceiver - Time: 2026-04-16T15:34:45.282591600Z, Message: !AIVDM,2,2,0,B,@000000000000000,2*67
2026-04-16 15:34:45.282 [Thread-3    ] INFO  d.j.m.r.TCPLineReceiver - Time: 2026-04-16T15:34:45.282591600Z, Message: !AIVDM,1,1,,B,139qSn0P000`0wRNHiA;WwwH05r8,0*32
2026-04-16 15:34:45.282 [Thread-3    ] INFO  d.j.m.r.TCPLineReceiver - Time: 2026-04-16T15:34:45.282591600Z, Message: !AIVDM,1,1,,B,339gL<0P01PWLk`NK1Hp:wwF22mQ,0*66
2026-04-16 15:34:45.282 [Thread-3    ] INFO  d.j.m.r.TCPLineReceiver - Time: 2026-04-16T15:34:45.282591600Z, Message: !AIVDM,1,1,,B,139fvigP?w<tSF0l4Q@>4?wv0`Ej,0*77
2026-04-16 15:34:45.282 [Thread-3    ] INFO  d.j.m.r.TCPLineReceiver - Time: 2026-04-16T15:34:45.282591600Z, Message: !AIVDO,1,1,,,139vb@0P00PVveFNL6lN4?wF2000,0*17
2026-04-16 15:34:45.282 [Thread-3    ] INFO  d.j.m.r.TCPLineReceiver - Time: 2026-04-16T15:34:45.282591600Z, Message: !AIVDM,1,1,,B,38;Sh65000PWhf@NIKds7SLv0Dg:,0*78
2026-04-16 15:34:45.910 [Thread-2    ] INFO  d.j.m.r.TCPLineReceiver - Time: 2026-04-16T15:34:45.910837800Z, Message: $GPRMC,153445.00,A,5311.7781152,N,00830.9137184,E,0.0,,160426,3.7,E,D*1C
2026-04-16 15:34:45.910 [Thread-2    ] INFO  d.j.m.r.TCPLineReceiver - Time: 2026-04-16T15:34:45.910837800Z, Message: $GPGGA,153445.00,5311.7781152,N,00830.9137184,E,4,20,0.7,4.0604,M,46.3527,M,1.0,4095*4D
2026-04-16 15:34:45.910 [Thread-2    ] INFO  d.j.m.r.TCPLineReceiver - Time: 2026-04-16T15:34:45.910837800Z, Message: $GPHDT,,T*1B
2026-04-16 15:34:45.910 [Thread-2    ] INFO  d.j.m.r.TCPLineReceiver - Time: 2026-04-16T15:34:45.910837800Z, Message: $GPGST,153445.00,0.382,0.010,0.005,14.364,0.009,0.006,0.011*63
2026-04-16 15:34:46.090 [Thread-3    ] INFO  d.j.m.r.TCPLineReceiver - Time: 2026-04-16T15:34:46.090671200Z, Message: !AIVDM,1,1,,A,139idk0000PVu;0NLNc@QU;H25r8,0*56
2026-04-16 15:34:46.090 [Thread-3    ] INFO  d.j.m.r.TCPLineReceiver - Time: 2026-04-16T15:34:46.090671200Z, Message: !AIVDO,1,1,,,139vb@0P00PVveFNL6lN4?wH2000,0*19
2026-04-16 15:34:46.091 [Thread-3    ] INFO  d.j.m.r.TCPLineReceiver - Time: 2026-04-16T15:34:46.091228700Z, Message: !AIVDM,1,1,,A,139o31PP00PW;u8NKU7N4?wH2@JK,0*6F
2026-04-16 15:34:46.217 [Thread-4    ] INFO  d.j.m.r.TCPLineReceiver - Time: 2026-04-16T15:34:46.217364200Z, Message: $WIMWV,308.6,R,1.4,M,A*28
2026-04-16 15:34:46.217 [Thread-4    ] INFO  d.j.m.r.TCPLineReceiver - Time: 2026-04-16T15:34:46.217364200Z, Message: $WIMWV,308.0,T,1.4,M,A*28
2026-04-16 15:34:46.217 [Thread-4    ] INFO  d.j.m.r.TCPLineReceiver - Time: 2026-04-16T15:34:46.217364200Z, Message: $WIMWV,308.6,R,1.4,M,A*28
2026-04-16 15:34:46.217 [Thread-4    ] INFO  d.j.m.r.TCPLineReceiver - Time: 2026-04-16T15:34:46.217959600Z, Message: $WIMWV,308.0,T,1.4,M,A*28
2026-04-16 15:34:46.265 [WeatherColle] WARN  d.j.d.w.WeatherParser - Could not transform relative windDirection to true north, because no headingInformation is available
2026-04-16 15:34:46.265 [WeatherColle] WARN  d.j.d.w.WeatherParser - Could not transform relative windDirection to true north, because no headingInformation is available
2026-04-16 15:34:46.265 [WeatherColle] WARN  d.j.d.w.WeatherParser - Could not transform relative windDirection to true north, because no headingInformation is available
2026-04-16 15:34:46.266 [WeatherColle] WARN  d.j.d.w.WeatherParser - Could not transform relative windDirection to true north, because no headingInformation is available
2026-04-16 15:34:46.416 [Thread-2    ] INFO  d.j.m.r.TCPLineReceiver - Time: 2026-04-16T15:34:46.416317800Z, Message: $GPRMC,153446.00,A,5311.7781245,N,00830.9137391,E,0.1,,160426,3.7,E,D*1D
2026-04-16 15:34:46.416 [Thread-2    ] INFO  d.j.m.r.TCPLineReceiver - Time: 2026-04-16T15:34:46.416317800Z, Message: $GPGGA,153446.00,5311.7781245,N,00830.9137391,E,4,20,0.7,4.0613,M,46.3527,M,1.0,4095*4B
2026-04-16 15:34:46.416 [Thread-2    ] INFO  d.j.m.r.TCPLineReceiver - Time: 2026-04-16T15:34:46.416317800Z, Message: $GPHDT,,T*1B
2026-04-16 15:34:46.416 [Thread-2    ] INFO  d.j.m.r.TCPLineReceiver - Time: 2026-04-16T15:34:46.416317800Z, Message: $GPGST,153446.00,0.378,0.010,0.006,13.709,0.009,0.006,0.011*6E
2026-04-16 15:34:47.090 [Thread-3    ] INFO  d.j.m.r.TCPLineReceiver - Time: 2026-04-16T15:34:47.090878500Z, Message: !AIVDM,1,1,,B,139K8WP0000Wtl@NI3eQsAaF0D0f,0*52
2026-04-16 15:34:47.090 [Thread-3    ] INFO  d.j.m.r.TCPLineReceiver - Time: 2026-04-16T15:34:47.090878500Z, Message: !AIVDO,1,1,,,139vb@0P00PVveFNL6lN4?wJ2000,0*1B
2026-04-16 15:34:47.090 [Thread-3    ] INFO  d.j.m.r.TCPLineReceiver - Time: 2026-04-16T15:34:47.090878500Z, Message: !AIVDM,1,1,,B,839idk0j2P00000000QPS@QP0100,0*5B
2026-04-16 15:34:47.090 [Thread-3    ] INFO  d.j.m.r.TCPLineReceiver - Time: 2026-04-16T15:34:47.090878500Z, Message: !AIVDM,1,1,,B,139f0<P019PVtDLNLHgmkTSL20SR,0*05
2026-04-16 15:34:47.154 [AISCollector] WARN  d.j.d.a.AISParser - Could not parse AIS Message: !AIVDM,1,1,,B,839idk0j2P00000000QPS@QP0100,0*5B Current collected payload: 839idk0j2P00000000QPS@QP0100
2026-04-16 15:34:47.217 [Thread-4    ] INFO  d.j.m.r.TCPLineReceiver - Time: 2026-04-16T15:34:47.217322300Z, Message: $WIMWV,321.1,R,1.5,M,A*25
2026-04-16 15:34:47.217 [Thread-4    ] INFO  d.j.m.r.TCPLineReceiver - Time: 2026-04-16T15:34:47.217322300Z, Message: $WIMWV,320.7,T,1.5,M,A*24
2026-04-16 15:34:47.217 [Thread-4    ] INFO  d.j.m.r.TCPLineReceiver - Time: 2026-04-16T15:34:47.217322300Z, Message: $WIMWV,321.1,R,1.5,M,A*25
2026-04-16 15:34:47.217 [Thread-4    ] INFO  d.j.m.r.TCPLineReceiver - Time: 2026-04-16T15:34:47.217322300Z, Message: $WIMWV,320.4,T,1.5,M,A*27
2026-04-16 15:34:47.281 [WeatherColle] WARN  d.j.d.w.WeatherParser - Could not transform relative windDirection to true north, because no headingInformation is available
2026-04-16 15:34:47.281 [WeatherColle] WARN  d.j.d.w.WeatherParser - Could not transform relative windDirection to true north, because no headingInformation is available
2026-04-16 15:34:47.281 [WeatherColle] WARN  d.j.d.w.WeatherParser - Could not transform relative windDirection to true north, because no headingInformation is available
